<?xml version="1.0" encoding="UTF-8"?>
<gpx
 version="1.1"
 creator="Navaid Waypoint Generator - http://navaid.com/GPX/"
 xmlns:xsi="http://www.w3.org/2001/XMLSchema-instance"
 xmlns="http://www.topografix.com/GPX/1/1"
 xmlns:navaid="http://navaid.com/GPX/NAVAID/1/0"
 xsi:schemaLocation="http://www.topografix.com/GPX/1/1 http://www.topografix.com/GPX/1/1/gpx.xsd
 http://navaid.com/GPX/NAVAID/1/0 http://navaid.com/GPX/NAVAID/1/0">
 <metadata>
    <author>
        <name>Paul Tomblin</name>
        <email id="ptomblin" domain="xcski.com"/>
        <link href="http://blog.xcski.com/"/>
    </author>
    <link href="http://navaid.com/GPX/"/>
</metadata>
<wpt lat="44.872778" lon="6.610000">
<ele>1199.9976</ele>
<magvar>359.9</magvar>
<name>LF0534</name>
<Cmt>St Blaise,FR</Cmt>
</wpt>
<wpt lat="44.866667" lon="5.772500">
<ele>299.9232</ele>
<magvar>0.0</magvar>
<name>LF3868</name>
<cmt>St Jean D'Hérans,FR</cmt>
</wpt>
<wpt lat="44.458333" lon="6.218056">
<ele>650.1384</ele>
<magvar>0.0</magvar>
<name>LF0529</name>
<cmt>Espinasses,FR</cmt>
</wpt>
<wpt lat="43.206389" lon="6.482500">
<ele>17.9832</ele>
<magvar>359.9</magvar>
<name>LFNM</name>
<cmt>La Mole,FR</cmt>
</wpt>
<wpt lat="43.619444" lon="6.348889">
<ele>625.1448</ele>
<magvar>359.9</magvar>
<name>LF8327</name>
<cmt>Ampus,FR</cmt>
</wpt>
<wpt lat="47.916667" lon="6.830556">
<ele>971.0928</ele>
<magvar>0.0</magvar>
<name>LF8821</name>
<cmt>La Tête Des Champs Le Menil,FR</cmt>
</wpt>
<wpt lat="43.318056" lon="1.404167">
<ele>321.8688</ele>
<magvar>1.2</magvar>
<name>LF3122</name>
<cmt>Esperce Pauzies,FR</cmt>
</wpt>
<wpt lat="43.056111" lon="0.003056">
<ele>740.664</ele>
<magvar>1.6</magvar>
<name>LF6527</name>
<cmt>Artigues,FR</cmt>
</wpt>
<wpt lat="42.477778" lon="2.047222">
<ele>1501.4448</ele>
<magvar>0.9</magvar>
<name>LF6625</name>
<cmt>Saillagouse Hippopotame,FR</cmt>
</wpt>
<wpt lat="44.900000" lon="0.748611">
<ele>195.9864</ele>
<magvar>1.5</magvar>
<name>LF2432</name>
<cmt>Pressignac Vicq Rebeyrotte,FR</cmt>
</wpt>
<wpt lat="44.820000" lon="1.466667">
<ele>274.32</ele>
<magvar>1.3</magvar>
<name>LF4624</name>
<cmt>LOUPIAC,FR</cmt>
</wpt>
<wpt lat="43.877222" lon="0.982222">
<ele>103.0224</ele>
<magvar>1.4</magvar>
<name>LF8222</name>
<cmt>Beaumont De Lomagne,FR</cmt>
</wpt>
<wpt lat="44.107500" lon="1.966667">
<magvar>1.1</magvar>
<name>LF8121</name>
<cmt>Bournazel,FR</cmt>
</wpt>
<wpt lat="44.087500" lon="1.658333">
<magvar>1.2</magvar>
<name>LF8224</name>
<cmt>Bruniquel,FR</cmt>
</wpt>
<wpt lat="44.408333" lon="0.891667">
<magvar>1.5</magvar>
<name>LF4726</name>
<cmt>Tremons,FR</cmt>
</wpt>
<wpt lat="43.191667" lon="3.050000">
<ele>3.9624</ele>
<magvar>0.7</magvar>
<name>LF1121</name>
<cmt>Narbonne,FR</cmt>
</wpt>
<wpt lat="44.636667" lon="5.062778">
<ele>299.9232</ele>
<magvar>0.2</magvar>
<name>LF2633</name>
<cmt>Saou,FR</cmt>
</wpt>
<wpt lat="44.583333" lon="3.416667">
<magvar>0.7</magvar>
<name>LF4824</name>
<cmt>Brassalieres,FR</cmt>
</wpt>
<wpt lat="44.413333" lon="3.290833">
<ele>890.016</ele>
<magvar>0.7</magvar>
<name>LF4823</name>
<cmt>La Canourgue Conques,FR</cmt>
</wpt>
<wpt lat="45.441667" lon="6.418056">
<ele>1931.8224</ele>
<magvar>0.0</magvar>
<name>LF7328</name>
<cmt>Valmorel,FR</cmt>
</wpt>
<wpt lat="45.451111" lon="6.880556">
<ele>2442.3624</ele>
<magvar>359.9</magvar>
<name>LF7333</name>
<cmt>Vers Le Col Du Palet Tignes,FR</cmt>
</wpt>
<wpt lat="45.787500" lon="6.098611">
<magvar>0.0</magvar>
<name>LF7333</name>
<cmt>Vers Le Col Du Palet,FR</cmt>
</wpt>
<wpt lat="45.924444" lon="6.720000">
<ele>590.0928</ele>
<magvar>359.9</magvar>
<name>LF7454</name>
<cmt>Passy,FR</cmt>
</wpt>
<wpt lat="45.194444" lon="6.278056">
<ele>1817.8272</ele>
<magvar>0.0</magvar>
<name>LF7331</name>
<cmt>Praz Sauge Et Pré Vernay St Jean D'arves,FR</cmt>
</wpt>
<wpt lat="45.607222" lon="6.709722">
<ele>2022.0432</ele>
<magvar>359.9</magvar>
<name>LF7329</name>
<cmt>Vaugellaz,FR</cmt>
</wpt>
<wpt lat="45.708333" lon="6.121667">
<ele>709.8792</ele>
<magvar>0.0</magvar>
<name>LF7356</name>
<cmt>La Motte En Bauges,FR</cmt>
</wpt>
<wpt lat="45.064167" lon="6.031944">
<ele>719.9376</ele>
<magvar>0.0</magvar>
<name>LF3864</name>
<cmt>Bourg D'Oisans,FR</cmt>
</wpt>
<wpt lat="46.170833" lon="2.431944">
<ele>455.0664</ele>
<magvar>1.1</magvar>
<name>LF2321</name>
<cmt>Evaux,FR</cmt>
</wpt>
<wpt lat="46.063889" lon="0.943056">
<magvar>1.6</magvar>
<name>LF8725</name>
<cmt>Nouic,FR</cmt>
</wpt>
<wpt lat="45.908333" lon="0.450000">
<magvar>1.8</magvar>
<name>LF1624</name>
<cmt>Parzac,FR</cmt>
</wpt>
<wpt lat="45.553333" lon="0.559167">
<ele>182.88</ele>
<magvar>1.6</magvar>
<name>LF2428</name>
<cmt>Javerlhac,FR</cmt>
</wpt>
<wpt lat="45.106111" lon="1.250000">
<ele>152.0952</ele>
<magvar>1.4</magvar>
<name>LF2423</name>
<cmt>Condat,FR</cmt>
</wpt>
<wpt lat="46.513889" lon="2.283333">
<magvar>1.2</magvar>
<name>LF1823</name>
<cmt>St Saturnin,FR</cmt>
</wpt>
<wpt lat="47.727778" lon="3.700000">
<magvar>0.9</magvar>
<name>LF8923</name>
<cmt>CRAVANT,FR</cmt>
</wpt>
<wpt lat="49.179167" lon="0.997778">
<ele>147.828</ele>
<magvar>1.9</magvar>
<name>LF2722</name>
<cmt>Cesseville Ferme Des Moulins,FR</cmt>
</wpt>
<wpt lat="48.393056" lon="1.054722">
<ele>270.0528</ele>
<magvar>1.8</magvar>
<name>LF2822</name>
<cmt>Le Petit Bois Landry,FR</cmt>
</wpt>
<wpt lat="48.438889" lon="1.279167">
<ele>170.0784</ele>
<magvar>1.7</magvar>
<name>LF2823</name>
<cmt>Loulappe,FR</cmt>
</wpt>
<wpt lat="48.508333" lon="1.016667">
<ele>210.0072</ele>
<magvar>1.8</magvar>
<name>LF2827</name>
<cmt>Fontaine Simon,FR</cmt>
</wpt>
<wpt lat="49.200000" lon="4.833333">
<ele>124.968</ele>
<magvar>0.6</magvar>
<name>LF5122</name>
<cmt>Servon Melzicourt,FR</cmt>
</wpt>
<wpt lat="47.836111" lon="3.030556">
<magvar>1.1</magvar>
<name>LF8925</name>
<cmt>Marchais,FR</cmt>
</wpt>
<wpt lat="50.901389" lon="4.484444">
<ele>56.0832</ele>
<magvar>0.5</magvar>
<name>EBMB</name>
<cmt>Melsbroek,BE</cmt>
</wpt>
<wpt lat="52.778889" lon="0.672500">
<ele>89.916</ele>
<magvar>2.5</magvar>
<name>UK272</name>
<cmt>Great Massingham,UK</cmt>
</wpt>
<wpt lat="53.655278" lon="0.119722">
<magvar>2.7</magvar>
<name>UK196</name>
<cmt>Easington (Heli),UK</cmt>
</wpt>
<wpt lat="32.745100" lon="62.598700">
<ele>799.1856</ele>
<magvar>357.4</magvar>
<name>AF14</name>
<cmt>Tapa,AF</cmt>
</wpt>
<wpt lat="55.411700" lon="28.748300">
<ele>142.9512</ele>
<magvar>352.6</magvar>
<name>BY-0005</name>
<cmt>Polotsk,BO</cmt>
</wpt>
<wpt lat="10.317000" lon="1.383000">
<ele>430.0728</ele>
<magvar>2.8</magvar>
<name>DBBN</name>
<cmt>Natitingou,BN</cmt>
</wpt>
<wpt lat="12.050000" lon="1.783000">
<ele>289.8648</ele>
<magvar>2.4</magvar>
<name>DFED</name>
<cmt>Diapaga,UV</cmt>
</wpt>
<wpt lat="13.950000" lon="0.733000">
<ele>259.08</ele>
<magvar>2.3</magvar>
<name>DRRE</name>
<cmt>Tera,NG</cmt>
</wpt>
<wpt lat="18.790400" lon="7.365950">
<ele>439.8264</ele>
<magvar>0.3</magvar>
<name>DRZL</name>
<cmt>Arlit,NG</cmt>
</wpt>
<wpt lat="7.800000" lon="1.283000">
<ele>180.1368</ele>
<magvar>3.4</magvar>
<name>DXKP</name>
<cmt>Kolokope,TO</cmt>
</wpt>
<wpt lat="50.580600" lon="4.792500">
<ele>171.9072</ele>
<magvar>0.0</magvar>
<name>EBLN</name>
<cmt>Liernu,BE</cmt>
</wpt>
<wpt lat="59.536700" lon="26.311700">
<ele>41.148</ele>
<magvar>352.2</magvar>
<name>EE-9278</name>
<cmt>Kunda Air Base,EN</cmt>
</wpt>
<wpt lat="61.728900" lon="29.393600">
<ele>77.1144</ele>
<magvar>350.3</magvar>
<name>EFPN</name>
<cmt>Punkaharju,FI</cmt>
</wpt>
<wpt lat="61.039700" lon="22.591700">
<ele>89.916</ele>
<magvar>353.2</magvar>
<name>EFVP</name>
<cmt>Vampula,FI</cmt>
</wpt>
<wpt lat="30.420600" lon="31.678900">
<magvar>356.4</magvar>
<name>EG-0003</name>
<cmt>Bilbays 2,EG</cmt>
</wpt>
<wpt lat="30.330000" lon="32.267800">
<magvar>356.4</magvar>
<name>EG-0006</name>
<cmt>Fa'id,EG</cmt>
</wpt>
<wpt lat="60.880000" lon="11.673100">
<ele>200.8632</ele>
<magvar>357.9</magvar>
<name>ENHN</name>
<cmt>Elverum Starmoen,NO</cmt>
</wpt>
<wpt lat="59.298600" lon="9.134440">
<ele>57.912</ele>
<magvar>359.0</magvar>
<name>ENLU</name>
<cmt>Lunde Nomelprvir,NO</cmt>
</wpt>
<wpt lat="50.957800" lon="16.770300">
<ele>150.876</ele>
<magvar>356.6</magvar>
<name>EPMR</name>
<cmt>Miroslawice Private,PL</cmt>
</wpt>
<wpt lat="50.518300" lon="20.515000">
<ele>185.928</ele>
<magvar>355.7</magvar>
<name>EPPC</name>
<cmt>Pinczow,PL</cmt>
</wpt>
<wpt lat="59.732800" lon="18.696400">
<ele>11.8872</ele>
<magvar>355.1</magvar>
<name>ESSN</name>
<cmt>Norrtälje,SW</cmt>
</wpt>
<wpt lat="56.778300" lon="24.853900">
<ele>60.96</ele>
<magvar>353.4</magvar>
<name>EVGA</name>
<cmt>Lielvarde,LG</cmt>
</wpt>
<wpt lat="55.920300" lon="21.567200">
<ele>78.9432</ele>
<magvar>354.6</magvar>
<name>EYKT</name>
<cmt>Kartena,LH</cmt>
</wpt>
<wpt lat="56.230600" lon="22.259400">
<ele>78.9432</ele>
<magvar>354.4</magvar>
<name>EYMA</name>
<cmt>Tirksliai,LH</cmt>
</wpt>
<wpt lat="4.937000" lon="15.894000">
<ele>605.028</ele>
<magvar>0.7</magvar>
<name>FEFC</name>
<cmt>Carnot,CT</cmt>
</wpt>
<wpt lat="8.400000" lon="20.650000">
<ele>497.1288</ele>
<magvar>359.4</magvar>
<name>FEFN</name>
<cmt>N'Délé,CT</cmt>
</wpt>
<wpt lat="6.492000" lon="17.429000">
<ele>498.9576</ele>
<magvar>0.1</magvar>
<name>FEFS</name>
<cmt>Bossangoa,CT</cmt>
</wpt>
<wpt lat="5.733000" lon="19.083000">
<ele>430.0728</ele>
<magvar>0.0</magvar>
<name>FEFU</name>
<cmt>Sibut,CT</cmt>
</wpt>
<wpt lat="6.520000" lon="23.260000">
<ele>601.98</ele>
<magvar>359.1</magvar>
<name>FEFY</name>
<cmt>Yalinga,CT</cmt>
</wpt>
<wpt lat="6.300000" lon="19.083000">
<ele>549.8592</ele>
<magvar>359.9</magvar>
<name>FEGD</name>
<cmt>Dekoa,CT</cmt>
</wpt>
<wpt lat="9.583000" lon="21.733000">
<ele>434.9496</ele>
<magvar>359.1</magvar>
<name>FEGL</name>
<cmt>Gordil,CT</cmt>
</wpt>
<wpt lat="8.900000" lon="22.783000">
<ele>605.028</ele>
<magvar>359.0</magvar>
<name>FEGO</name>
<cmt>Ouanda Djallé,CT</cmt>
</wpt>
<wpt lat="3.016940" lon="29.559200">
<ele>975.0552</ele>
<magvar>358.9</magvar>
<name>FZJI</name>
<cmt>Watsa,CG</cmt>
</wpt>
<wpt lat="3.733000" lon="29.700000">
<ele>819.912</ele>
<magvar>358.7</magvar>
<name>FZJK</name>
<cmt>Faradje,CG</cmt>
</wpt>
<wpt lat="2.167000" lon="31.150000">
<ele>778.764</ele>
<magvar>358.9</magvar>
<name>FZKC</name>
<cmt>Mahagi,CG</cmt>
</wpt>
<wpt lat="18.433000" lon="1.417000">
<ele>455.9808</ele>
<magvar>1.5</magvar>
<name>GAKL</name>
<cmt>Kidal,ML</cmt>
</wpt>
<wpt lat="5.782870" lon="36.562000">
<magvar>358.5</magvar>
<name>HABC</name>
<cmt>Baco,ET</cmt>
</wpt>
<wpt lat="8.554000" lon="34.858000">
<ele>1584.96</ele>
<magvar>358.1</magvar>
<name>HADD</name>
<cmt>Dembidollo,ET</cmt>
</wpt>
<wpt lat="10.350000" lon="37.717000">
<ele>2479.8528</ele>
<magvar>358.0</magvar>
<name>HADM</name>
<cmt>Debra Marcos,ET</cmt>
</wpt>
<wpt lat="11.967000" lon="38.000000">
<ele>2587.752</ele>
<magvar>357.9</magvar>
<name>HADT</name>
<cmt>Debre Tabor,ET</cmt>
</wpt>
<wpt lat="4.700000" lon="45.217000">
<ele>170.3832</ele>
<magvar>359.9</magvar>
<name>HCMN</name>
<cmt>Belet Uen,SO</cmt>
</wpt>
<wpt lat="9.517000" lon="45.567000">
<ele>1036.32</ele>
<magvar>359.1</magvar>
<name>HCMV</name>
<cmt>Burao,SO</cmt>
</wpt>
<wpt lat="11.133300" lon="42.716700">
<magvar>358.4</magvar>
<name>HDAS</name>
<cmt>Ali-Sabieh,DJ</cmt>
</wpt>
<wpt lat="11.516800" lon="43.061400">
<ele>85.0392</ele>
<magvar>358.4</magvar>
<name>HDCH</name>
<cmt>Chabelley,DJ</cmt>
</wpt>
<wpt lat="26.557200" lon="33.121900">
<magvar>356.7</magvar>
<name>HE26</name>
<cmt>Wadi Abu Shihat,EG</cmt>
</wpt>
<wpt lat="3.216670" lon="35.966700">
<ele>425.196</ele>
<magvar>358.8</magvar>
<name>HKES</name>
<cmt>Eliye Springs,KE</cmt>
</wpt>
<wpt lat="12.533000" lon="35.067000">
<ele>499.872</ele>
<magvar>357.7</magvar>
<name>HSGG</name>
<cmt>Galegu,SU</cmt>
</wpt>
<wpt lat="3.917000" lon="31.667000">
<ele>762</ele>
<magvar>358.6</magvar>
<name>HSKJ</name>
<cmt>Kago Kaju,SU</cmt>
</wpt>
<wpt lat="6.825000" lon="29.669000">
<ele>420.0144</ele>
<magvar>358.4</magvar>
<name>HSMK</name>
<cmt>Rumbek,SU</cmt>
</wpt>
<wpt lat="0.647222" lon="36.850900">
<ele>1767.84</ele>
<magvar>359.4</magvar>
<name>KE-0036</name>
<cmt>Muridjo Ranch,KE</cmt>
</wpt>
<wpt lat="0.933333" lon="37.066700">
<ele>1828.8</ele>
<magvar>359.4</magvar>
<name>KE-0042</name>
<cmt>Hall Hall,KE</cmt>
</wpt>
<wpt lat="1.266670" lon="35.033300">
<ele>1633.728</ele>
<magvar>359.1</magvar>
<name>KE-6024</name>
<cmt>Masai Mara,KE</cmt>
</wpt>
<wpt lat="0.013944" lon="36.884200">
<ele>1700.784</ele>
<magvar>359.6</magvar>
<name>KE-6048</name>
<cmt>Oleleren,KE</cmt>
</wpt>
<wpt lat="0.713889" lon="36.867500">
<ele>1563.624</ele>
<magvar>359.4</magvar>
<name>KE-6068</name>
<cmt>Soy-Chemoset,KE</cmt>
</wpt>
<wpt lat="1.483330" lon="35.466700">
<ele>980.8464</ele>
<magvar>359.1</magvar>
<name>KE-6155</name>
<cmt>Sigor,KE</cmt>
</wpt>
<wpt lat="0.977778" lon="37.318900">
<ele>1317.9552</ele>
<magvar>359.4</magvar>
<name>KE-6178</name>
<cmt>Wamba,KE</cmt>
</wpt>
<wpt lat="39.160200" lon="126.042000">
<magvar>8.3</magvar>
<name>KP-0017</name>
<cmt>Kangdong,KN</cmt>
</wpt>
<wpt lat="39.415700" lon="125.895000">
<magvar>8.4</magvar>
<name>KP-0021</name>
<cmt>Sunchon,KN</cmt>
</wpt>
<wpt lat="39.996800" lon="127.615000">
<magvar>8.7</magvar>
<name>KP-0025</name>
<cmt>Toksan,KN</cmt>
</wpt>
<wpt lat="40.681400" lon="128.151000">
<magvar>9.0</magvar>
<name>KP-0035</name>
<cmt>Hwangsuwon,KN</cmt>
</wpt>
<wpt lat="38.252100" lon="125.966000">
<magvar>8.0</magvar>
<name>KP-0037</name>
<cmt>Ayang Ni Highway Strip,KN</cmt>
</wpt>
<wpt lat="37.927500" lon="125.420000">
<magvar>7.9</magvar>
<name>KP-0050</name>
<cmt>Ongjin,KN</cmt>
</wpt>
<wpt lat="38.675600" lon="126.928000">
<magvar>8.3</magvar>
<name>KP-0058</name>
<cmt>Inchon Northeast,KN</cmt>
</wpt>
<wpt lat="42.293500" lon="69.845600">
<ele>752.856</ele>
<magvar>354.8</magvar>
<name>KZ-0007</name>
<cmt>Chimkent/Sayram,KZ</cmt>
</wpt>
<wpt lat="43.346400" lon="52.930400">
<ele>211.836</ele>
<magvar>353.4</magvar>
<name>KZ-0017</name>
<cmt>Uzen,KZ</cmt>
</wpt>
<wpt lat="42.464100" lon="69.601000">
<ele>466.344</ele>
<magvar>354.7</magvar>
<name>KZ-0031</name>
<cmt>Chikment/Khatynkopir,KZ</cmt>
</wpt>
<wpt lat="42.769100" lon="69.280000">
<ele>302.0568</ele>
<magvar>354.5</magvar>
<name>KZ-0041</name>
<cmt>Krasnyy Most East,KZ</cmt>
</wpt>
<wpt lat="41.456200" lon="69.141900">
<ele>432.2064</ele>
<magvar>355.0</magvar>
<name>KZ-0052</name>
<cmt>Sary Agach,KZ</cmt>
</wpt>
<wpt lat="42.218100" lon="69.004400">
<ele>315.468</ele>
<magvar>354.7</magvar>
<name>KZ-0058</name>
<cmt>Taganassay,KZ</cmt>
</wpt>
<wpt lat="45.386400" lon="18.962800">
<ele>88.0872</ele>
<magvar>356.6</magvar>
<name>LDOB</name>
<cmt>Vukovar Borovo N,HR</cmt>
</wpt>
<wpt lat="44.843300" lon="13.904200">
<ele>52.1208</ele>
<magvar>357.6</magvar>
<name>LDPM</name>
<cmt>Medulin Campanoz,HR</cmt>
</wpt>
<wpt lat="45.559400" lon="17.033100">
<ele>124.968</ele>
<magvar>356.9</magvar>
<name>LDVD</name>
<cmt>Daruvar Blagorod,HR</cmt>
</wpt>
<wpt lat="46.213100" lon="16.837200">
<ele>134.112</ele>
<magvar>356.9</magvar>
<name>LDVK</name>
<cmt>Koprivnica Danic,HR</cmt>
</wpt>
<wpt lat="48.076900" lon="5.151390">
<ele>358.14</ele>
<magvar>359.8</magvar>
<name>LFSY</name>
<cmt>Chaumont,FR</cmt>
</wpt>
<wpt lat="46.895800" lon="18.913900">
<ele>120.0912</ele>
<magvar>356.5</magvar>
<name>LHDV</name>
<cmt>Dunaujvaros Glider,HU</cmt>
</wpt>
<wpt lat="49.797800" lon="12.706900">
<ele>499.872</ele>
<magvar>357.8</magvar>
<name>LKTD</name>
<cmt>Tachov Oldrichov,EZ</cmt>
</wpt>
<wpt lat="49.928300" lon="18.078300">
<ele>241.0968</ele>
<magvar>356.4</magvar>
<name>LKZA</name>
<cmt>Zabreh Ostrava,EZ</cmt>
</wpt>
<wpt lat="32.180600" lon="34.834700">
<ele>36.8808</ele>
<magvar>356.1</magvar>
<name>LLHZ</name>
<cmt>Herzliya,IS</cmt>
</wpt>
<wpt lat="30.650600" lon="34.806900">
<ele>779.0688</ele>
<magvar>356.3</magvar>
<name>LLMR</name>
<cmt>Mitzpe Ramon,IS</cmt>
</wpt>
<wpt lat="43.984200" lon="28.609700">
<ele>49.0728</ele>
<magvar>355.1</magvar>
<name>LRTZ</name>
<cmt>Tuzla Romania,RO</cmt>
</wpt>
<wpt lat="46.480300" lon="8.263330">
<ele>1335.024</ele>
<magvar>358.9</magvar>
<name>LSPU</name>
<cmt>Muenster Aero,SZ</cmt>
</wpt>
<wpt lat="20.350000" lon="98.016700">
<ele>309.0672</ele>
<magvar>1.0</magvar>
<name>MM-0003</name>
<cmt>Langkho,BM</cmt>
</wpt>
<wpt lat="16.571000" lon="94.932300">
<ele>25.908</ele>
<magvar>1.0</magvar>
<name>MM-0004</name>
<cmt>Myoungmya,BM</cmt>
</wpt>
<wpt lat="48.967000" lon="89.967000">
<magvar>357.0</magvar>
<name>MN-ULG</name>
<cmt>Ölgii,MG</cmt>
</wpt>
<wpt lat="24.928800" lon="52.858900">
<magvar>358.1</magvar>
<name>OMAQ</name>
<cmt>Qarnayn,AE</cmt>
</wpt>
<wpt lat="31.559700" lon="64.365000">
<ele>751.0272</ele>
<magvar>357.8</magvar>
<name>OABT</name>
<cmt>Bost,AF</cmt>
</wpt>
<wpt lat="33.631500" lon="69.239400">
<ele>2374.392</ele>
<magvar>357.6</magvar>
<name>OAKA</name>
<cmt>Gardez,AF</cmt>
</wpt>
<wpt lat="32.879600" lon="67.848600">
<ele>2011.68</ele>
<magvar>357.7</magvar>
<name>OAMK</name>
<cmt>Mukur,AF</cmt>
</wpt>
<wpt lat="34.985000" lon="63.117800">
<ele>914.0952</ele>
<magvar>356.8</magvar>
<name>OAQN</name>
<cmt>Qala-I-Naw,AF</cmt>
</wpt>
<wpt lat="36.022700" lon="70.769900">
<ele>2520.3912</ele>
<magvar>357.1</magvar>
<name>OARZ</name>
<cmt>Razer,AF</cmt>
</wpt>
<wpt lat="27.500000" lon="48.500000">
<ele>54.864</ele>
<magvar>357.2</magvar>
<name>OENR</name>
<cmt>Nariya,SA</cmt>
</wpt>
<wpt lat="25.167000" lon="37.333000">
<ele>15.24</ele>
<magvar>356.7</magvar>
<name>OEUM</name>
<cmt>Umm Lajj,SA</cmt>
</wpt>
<wpt lat="35.987700" lon="45.847100">
<ele>1496.8728</ele>
<magvar>355.5</magvar>
<name>OICB</name>
<cmt>Baneh,IR</cmt>
</wpt>
<wpt lat="35.266700" lon="59.216700">
<ele>1329.8424</ele>
<magvar>356.4</magvar>
<name>OIMH</name>
<cmt>Torbat-E-Heidarieh,IR</cmt>
</wpt>
<wpt lat="36.250000" lon="46.266700">
<ele>1487.424</ele>
<magvar>355.4</magvar>
<name>OITS</name>
<cmt>Saghez,IR</cmt>
</wpt>
<wpt lat="23.599700" lon="53.379400">
<magvar>358.4</magvar>
<name>OMAB</name>
<cmt>Buhasa,AE</cmt>
</wpt>
<wpt lat="22.891700" lon="57.758300">
<ele>518.16</ele>
<magvar>359.0</magvar>
<name>OOIZ</name>
<cmt>Izki Air Base,MU</cmt>
</wpt>
<wpt lat="24.827900" lon="66.664400">
<ele>12.192</ele>
<magvar>359.5</magvar>
<name>OPKA</name>
<cmt>Cape Monz,PK</cmt>
</wpt>
<wpt lat="24.729000" lon="67.587600">
<ele>6.096</ele>
<magvar>359.5</magvar>
<name>OPKF</name>
<cmt>Gharo,PK</cmt>
</wpt>
<wpt lat="29.133300" lon="66.516700">
<ele>1859.28</ele>
<magvar>358.6</magvar>
<name>OPKL</name>
<cmt>Kalat,PK</cmt>
</wpt>
<wpt lat="28.619900" lon="65.466500">
<ele>733.9584</ele>
<magvar>358.6</magvar>
<name>PK-0006</name>
<cmt>Kharan East,PK</cmt>
</wpt>
<wpt lat="32.920000" lon="71.690000">
<ele>94.488</ele>
<magvar>358.0</magvar>
<name>PK-0008</name>
<cmt>Mari Indus East,PK</cmt>
</wpt>
<wpt lat="27.166700" lon="69.316700">
<ele>75.5904</ele>
<magvar>359.2</magvar>
<name>PK-KCF</name>
<cmt>Kadanwari,PK</cmt>
</wpt>
<wpt lat="34.533300" lon="136.672000">
<ele>6.096</ele>
<magvar>6.9</magvar>
<name>RJOE</name>
<cmt>Akeno,JA</cmt>
</wpt>
<wpt lat="41.233000" lon="141.133000">
<ele>7.3152</ele>
<magvar>8.5</magvar>
<name>RJSO</name>
<cmt>JASDF,JA</cmt>
</wpt>
<wpt lat="51.974900" lon="55.549000">
<ele>121.92</ele>
<magvar>349.2</magvar>
<name>RU-0019</name>
<cmt>Chebenki Air Base,RS</cmt>
</wpt>
<wpt lat="54.958300" lon="43.311700">
<ele>160.02</ele>
<magvar>349.1</magvar>
<name>RU-0043</name>
<cmt>Sarovo,RS</cmt>
</wpt>
<wpt lat="52.297300" lon="43.724000">
<ele>205.1304</ele>
<magvar>350.3</magvar>
<name>RU-1743</name>
<cmt>Rtishchevo Air Base,RS</cmt>
</wpt>
<wpt lat="60.710000" lon="33.570000">
<ele>17.0688</ele>
<magvar>349.1</magvar>
<name>RU-187</name>
<cmt>Lodeynoye Pole Air Base,RS</cmt>
</wpt>
<wpt lat="81.166700" lon="64.583300">
<ele>9.144</ele>
<magvar>320.4</magvar>
<name>RU-2510</name>
<cmt>Greem Bell Air Base,RS</cmt>
</wpt>
<wpt lat="54.285000" lon="45.168300">
<ele>199.0344</ele>
<magvar>349.1</magvar>
<name>RU-6558</name>
<cmt>Lyambir Air Base,RS</cmt>
</wpt>
<wpt lat="56.260000" lon="34.408300">
<ele>193.8528</ele>
<magvar>350.7</magvar>
<name>RU-9937</name>
<cmt>Rzhev Air Base,RS</cmt>
</wpt>
<wpt lat="51.088500" lon="31.871000">
<ele>134.112</ele>
<magvar>353.0</magvar>
<name>UA-0005</name>
<cmt>Nizhyn Air Base,UP</cmt>
</wpt>
<wpt lat="50.150000" lon="32.533300">
<ele>117.0432</ele>
<magvar>353.1</magvar>
<name>UA-6709</name>
<cmt>Velyka Krucha Air Base,UP</cmt>
</wpt>
<wpt lat="48.705600" lon="37.628900">
<ele>196.9008</ele>
<magvar>352.6</magvar>
<name>UKCK</name>
<cmt>Kramatorsk,UP</cmt>
</wpt>
<wpt lat="49.568600" lon="34.397200">
<ele>153.924</ele>
<magvar>352.9</magvar>
<name>UKHP</name>
<cmt>Suprunovka,UP</cmt>
</wpt>
<wpt lat="55.454900" lon="89.173900">
<ele>334.9752</ele>
<magvar>354.3</magvar>
<name>UNKO</name>
<cmt>Sharypovo,RS</cmt>
</wpt>
<wpt lat="58.325300" lon="82.932500">
<ele>74.0664</ele>
<magvar>349.5</magvar>
<name>UNLL</name>
<cmt>Kolpashevo,RS</cmt>
</wpt>
<wpt lat="67.437200" lon="86.621900">
<ele>24.9936</ele>
<magvar>343.5</magvar>
<name>UOII</name>
<cmt>Igarka,RS</cmt>
</wpt>
<wpt lat="62.158600" lon="77.328900">
<ele>76.2</ele>
<magvar>344.0</magvar>
<name>USNR</name>
<cmt>Raduzhny,RS</cmt>
</wpt>
<wpt lat="39.069100" lon="66.754300">
<ele>579.12</ele>
<magvar>355.7</magvar>
<name>UTSH</name>
<cmt>Shakhristabz,UZ</cmt>
</wpt>
<wpt lat="56.939400" lon="40.940800">
<ele>124.968</ele>
<magvar>348.7</magvar>
<name>UUBI</name>
<cmt>Ivanovo South,RS</cmt>
</wpt>
<wpt lat="55.511700" lon="37.507200">
<ele>173.1264</ele>
<magvar>350.2</magvar>
<name>UUMO</name>
<cmt>Ostafyevo Intl,RS</cmt>
</wpt>
<wpt lat="66.054800" lon="60.110300">
<ele>56.0832</ele>
<magvar>338.2</magvar>
<name>UUYI</name>
<cmt>Inta,RS</cmt>
</wpt>
<wpt lat="56.700600" lon="47.904700">
<ele>106.0704</ele>
<magvar>347.3</magvar>
<name>UWKJ</name>
<cmt>Yoshkar-Ola,RS</cmt>
</wpt>
<wpt lat="52.687400" lon="58.714800">
<ele>398.9832</ele>
<magvar>348.7</magvar>
<name>UWUA</name>
<cmt>Sibay,RS</cmt>
</wpt>
<wpt lat="41.304500" lon="69.197300">
<ele>422.4528</ele>
<magvar>355.1</magvar>
<name>UZ-0003</name>
<cmt>Ak Tepe,UZ</cmt>
</wpt>
<wpt lat="38.634700" lon="66.272800">
<ele>511.7592</ele>
<magvar>355.8</magvar>
<name>UZ-0016</name>
<cmt>Guzar,UZ</cmt>
</wpt>
<wpt lat="41.027900" lon="69.200200">
<ele>345.0336</ele>
<magvar>355.2</magvar>
<name>UZ-0020</name>
<cmt>Kalinovka/Angren,UZ</cmt>
</wpt>
<wpt lat="37.652900" lon="66.973800">
<ele>385.2672</ele>
<magvar>356.2</magvar>
<name>UZ-0033</name>
<cmt>Naubag,UZ</cmt>
</wpt>
<wpt lat="37.690400" lon="67.050400">
<ele>400.2024</ele>
<magvar>356.2</magvar>
<name>UZ-0042</name>
<cmt>Shirabad Northeast,UZ</cmt>
</wpt>
<wpt lat="39.727700" lon="64.391300">
<ele>218.8464</ele>
<magvar>355.3</magvar>
<name>UZ-0055</name>
<cmt>Udurgi,UZ</cmt>
</wpt>
<wpt lat="41.009800" lon="71.948700">
<ele>438.912</ele>
<magvar>355.5</magvar>
<name>UZ-0056</name>
<cmt>Uychi Southeast,UZ</cmt>
</wpt>
<wpt lat="38.688100" lon="66.086800">
<ele>460.248</ele>
<magvar>355.8</magvar>
<name>UZ-0057</name>
<cmt>Yangi-Kent,UZ</cmt>
</wpt>
<wpt lat="39.743600" lon="66.723900">
<ele>634.5936</ele>
<magvar>355.5</magvar>
<name>UZ-0070</name>
<cmt>Daul,UZ</cmt>
</wpt>
<wpt lat="40.415800" lon="68.414900">
<ele>279.1968</ele>
<magvar>355.4</magvar>
<name>UZ-0080</name>
<cmt>Golodnaya Step Southeast,UZ</cmt>
</wpt>
<wpt lat="40.507000" lon="68.802200">
<ele>272.1864</ele>
<magvar>355.4</magvar>
<name>UZ-0081</name>
<cmt>Gulistan North,UZ</cmt>
</wpt>
<wpt lat="40.679400" lon="67.998400">
<ele>257.8608</ele>
<magvar>355.2</magvar>
<name>UZ-0084</name>
<cmt>Irdzharskaya West,UZ</cmt>
</wpt>
<wpt lat="39.742000" lon="66.576000">
<ele>610.8192</ele>
<magvar>355.4</magvar>
<name>UZ-0088</name>
<cmt>Kairma,UZ</cmt>
</wpt>
<wpt lat="40.581900" lon="67.793100">
<ele>256.032</ele>
<magvar>355.2</magvar>
<name>UZ-0105</name>
<cmt>Kishiseit Northeast,UZ</cmt>
</wpt>
<wpt lat="38.806200" lon="65.569700">
<ele>343.5096</ele>
<magvar>355.7</magvar>
<name>UZ-0106</name>
<cmt>Kodzhar Southwest,UZ</cmt>
</wpt>
<wpt lat="40.403000" lon="70.532400">
<ele>405.384</ele>
<magvar>355.6</magvar>
<name>UZ-0135</name>
<cmt>Yakkatu,UZ</cmt>
</wpt>
<wpt lat="17.400000" lon="104.800000">
<ele>136.8552</ele>
<magvar>1.0</magvar>
<name>VLTK</name>
<cmt>Thakhek,LA</cmt>
</wpt>
<wpt lat="28.212800" lon="83.666300">
<ele>1011.936</ele>
<magvar>359.9</magvar>
<name>VNBL</name>
<cmt>Baglung,NP</cmt>
</wpt>
<wpt lat="29.465300" lon="80.549200">
<ele>1280.16</ele>
<magvar>359.4</magvar>
<name>VNBT</name>
<cmt>Baitadi,NP</cmt>
</wpt>
<wpt lat="29.669200" lon="80.548400">
<ele>649.8336</ele>
<magvar>359.4</magvar>
<name>VNDL</name>
<cmt>Darchula,NP</cmt>
</wpt>
<wpt lat="28.517000" lon="83.033000">
<ele>2727.96</ele>
<magvar>359.8</magvar>
<name>VNDR</name>
<cmt>Dhorpatan,NP</cmt>
</wpt>
<wpt lat="26.517000" lon="86.750000">
<ele>76.2</ele>
<magvar>0.2</magvar>
<name>VNRB</name>
<cmt>Rajbiraj,NP</cmt>
</wpt>
<wpt lat="28.267000" lon="82.767000">
<ele>1249.68</ele>
<magvar>359.8</magvar>
<name>VNRP</name>
<cmt>Rolpa,NP</cmt>
</wpt>
<wpt lat="29.233000" lon="81.217000">
<ele>694.944</ele>
<magvar>359.5</magvar>
<name>VNSR</name>
<cmt>Sanfebagar,NP</cmt>
</wpt>
<wpt lat="11.267000" lon="98.767000">
<ele>30.48</ele>
<magvar>0.7</magvar>
<name>VYBP</name>
<cmt>Bokpyinn,BM</cmt>
</wpt>
<wpt lat="21.700000" lon="94.100000">
<ele>422.148</ele>
<magvar>0.8</magvar>
<name>VYHN</name>
<cmt>Tilin,BM</cmt>
</wpt>
<wpt lat="20.296700" lon="98.898900">
<ele>560.832</ele>
<magvar>1.0</magvar>
<name>VYMT</name>
<cmt>Mong Tong,BM</cmt>
</wpt>
<wpt lat="21.333300" lon="95.100000">
<ele>46.0248</ele>
<magvar>0.9</magvar>
<name>VYPU</name>
<cmt>Pakhokku,BM</cmt>
</wpt>
<wpt lat="2.950000" lon="99.050000">
<ele>414.8328</ele>
<magvar>0.5</magvar>
<name>WIMR</name>
<cmt>Pematang Siantar,ID</cmt>
</wpt>
<wpt lat="3.263420" lon="97.183800">
<ele>31.3944</ele>
<magvar>0.8</magvar>
<name>WITA</name>
<cmt>Teuku Cut Ali,ID</cmt>
</wpt>
<wpt lat="4.250000" lon="96.217000">
<ele>3.048</ele>
<magvar>1.0</magvar>
<name>WITC</name>
<cmt>Seunagan,ID</cmt>
</wpt>
<wpt lat="4.786290" lon="103.382000">
<ele>6.7056</ele>
<magvar>0.0</magvar>
<name>WMAG</name>
<cmt>Dungun,MY</cmt>
</wpt>
<wpt lat="2.383000" lon="103.867000">
<ele>3.048</ele>
<magvar>0.0</magvar>
<name>WMAU</name>
<cmt>Mersing,MY</cmt>
</wpt>
<wpt lat="2.050000" lon="102.650000">
<ele>6.096</ele>
<magvar>0.0</magvar>
<name>WMAV</name>
<cmt>Muar/Bakri,MY</cmt>
</wpt>
<wpt lat="4.867000" lon="100.717000">
<ele>12.192</ele>
<magvar>0.3</magvar>
<name>WMBI</name>
<cmt>Taiping (Tekah),MY</cmt>
</wpt>
<wpt lat="58.139500" lon="30.330400">
<ele>81.0768</ele>
<magvar>351.2</magvar>
<name>XLLL</name>
<cmt>Soltsy-2 Air Base,RS</cmt>
</wpt>
<wpt lat="14.867000" lon="45.550000">
<magvar>358.4</magvar>
<name>YE-WDA</name>
<cmt>Wadi Ain,YM</cmt>
</wpt>
<wpt lat="28.918900" lon="111.640000">
<magvar>3.3</magvar>
<name>ZGCD</name>
<cmt>Changde,CH</cmt>
</wpt>
<wpt lat="34.741100" lon="112.388000">
<magvar>4.4</magvar>
<name>ZHLY</name>
<cmt>Luoyang,CH</cmt>
</wpt>
<wpt lat="30.324400" lon="112.281000">
<magvar>3.6</magvar>
<name>ZHSS</name>
<cmt>Shashi,CH</cmt>
</wpt>
<wpt lat="30.671000" lon="111.441000">
<magvar>3.5</magvar>
<name>ZHYC</name>
<cmt>Yichang,CH</cmt>
</wpt>
<wpt lat="55.800800" lon="109.595000">
<ele>470.916</ele>
<magvar>6.8</magvar>
<name>UIUN</name>
<cmt>Nizhneangarsk,RS</cmt>
</wpt>
<wpt lat="56.206600" lon="95.636200">
<magvar>357.9</magvar>
<name>RU-0029</name>
<cmt>Kansk West,RS</cmt>
</wpt>
<wpt lat="61.275000" lon="108.030000">
<ele>121.92</ele>
<magvar>6.1</magvar>
<name>UIKE</name>
<cmt>Erbogachen,RS</cmt>
</wpt>
<wpt lat="61.676700" lon="96.355000">
<ele>259.9944</ele>
<magvar>356.4</magvar>
<name>UNIB</name>
<cmt>Baykit,RS</cmt>
</wpt>
<wpt lat="60.359700" lon="102.324000">
<ele>271.8816</ele>
<magvar>1.7</magvar>
<name>UNIW</name>
<cmt>Vanavara,RS</cmt>
</wpt>
<wpt lat="56.856700" lon="105.730000">
<ele>666.9024</ele>
<magvar>4.4</magvar>
<name>UITT</name>
<cmt>Ust-Kut,RS</cmt>
</wpt>
<wpt lat="58.602800" lon="125.409000">
<ele>683.0568</ele>
<magvar>14.1</magvar>
<name>UEEA</name>
<cmt>Aldan,RS</cmt>
</wpt>
<wpt lat="56.913300" lon="118.270000">
<ele>670.8648</ele>
<magvar>11.4</magvar>
<name>UIAR</name>
<cmt>Chara,RS</cmt>
</wpt>
<wpt lat="43.752200" lon="104.107000">
<ele>1420.0632</ele>
<magvar>3.0</magvar>
<name>ZMBR</name>
<cmt>Bulagtai Resort,MG</cmt>
</wpt>
<wpt lat="48.993300" lon="89.922500">
<ele>1747.1136</ele>
<magvar>357.0</magvar>
<name>ZMUL</name>
<cmt>Ulgii Mongolei,MG</cmt>
</wpt>
<wpt lat="31.919700" lon="119.779000">
<magvar>5.4</magvar>
<name>ZSCG</name>
<cmt>Changzhou,CH</cmt>
</wpt>
<wpt lat="31.428100" lon="104.741000">
<magvar>2.2</magvar>
<name>ZUMY</name>
<cmt>Mianyang,CH</cmt>
</wpt>
<wpt lat="45.617000" lon="84.883000">
<magvar>356.3</magvar>
<name>ZWKM</name>
<cmt>Karamay,CH</cmt>
</wpt>
<wpt lat="46.672500" lon="83.340800">
<magvar>355.5</magvar>
<name>ZWTC</name>
<cmt>Tacheng,CH</cmt>
</wpt>
<wpt lat="44.002200" lon="126.396000">
<magvar>9.8</magvar>
<name>ZYJL</name>
<cmt>Jilin,CH</cmt>
</wpt>
<wpt lat="24.214700" lon="51.449900">
<magvar>358.1</magvar>
<name>AE-0001</name>
<cmt>Ras Sumeira,AE</cmt>
</wpt>
<wpt lat="36.646100" lon="67.032300">
<ele>420.0144</ele>
<magvar>356.6</magvar>
<name>AF-0002</name>
<cmt>Dehdadi,AF</cmt>
</wpt>
<wpt lat="32.903000" lon="66.630900">
<ele>2049.78</ele>
<magvar>357.6</magvar>
<name>AF10</name>
<cmt>Oruzgan,AF</cmt>
</wpt>
<wpt lat="43.544300" lon="23.272500">
<ele>190.8048</ele>
<magvar>356.0</magvar>
<name>LB15</name>
<cmt>Gabrovnitsa,BU</cmt>
</wpt>
<wpt lat="42.263200" lon="24.719300">
<ele>189.8904</ele>
<magvar>355.9</magvar>
<name>LB39</name>
<cmt>Graf Ignatievo South,BU</cmt>
</wpt>
<wpt lat="43.609600" lon="27.836500">
<ele>251.46</ele>
<magvar>355.3</magvar>
<name>LB43</name>
<cmt>Dobrich,BU</cmt>
</wpt>
<wpt lat="43.898900" lon="19.697700">
<ele>904.0368</ele>
<magvar>356.6</magvar>
<name>LY88</name>
<cmt>Ponikve,RB</cmt>
</wpt>
<wpt lat="36.212700" lon="1.331770">
<ele>141.1224</ele>
<magvar>0.4</magvar>
<name>DAOI</name>
<cmt>Ech Cheliff,AG</cmt>
</wpt>
<wpt lat="35.207700" lon="0.147142">
<ele>513.8928</ele>
<magvar>0.7</magvar>
<name>DAOV</name>
<cmt>Ghriss,GHRISS,AG</cmt>
</wpt>
<wpt lat="34.793300" lon="5.738230">
<ele>88.0872</ele>
<magvar>359.5</magvar>
<name>DAUB</name>
<cmt>Biskra,AG</cmt>
</wpt>
<wpt lat="33.764400" lon="2.928340">
<ele>765.048</ele>
<magvar>0.0</magvar>
<name>DAUL</name>
<cmt>Laghouat,AG</cmt>
</wpt>
<wpt lat="28.051500" lon="9.642910">
<ele>562.9656</ele>
<magvar>359.2</magvar>
<name>DAUZ</name>
<cmt>In Amenas,ZARZAITINE,AG</cmt>
</wpt>
<wpt lat="6.357230" lon="2.384350">
<ele>5.7912</ele>
<magvar>3.5</magvar>
<name>DBBB</name>
<cmt>Cadjehoun,COTONOU,BN</cmt>
</wpt>
<wpt lat="12.171700" lon="6.696110">
<ele>463.296</ele>
<magvar>1.3</magvar>
<name>DNGU</name>
<cmt>Gusau,NI</cmt>
</wpt>
<wpt lat="5.427060" lon="7.206030">
<ele>113.6904</ele>
<magvar>2.5</magvar>
<name>DNIM</name>
<cmt>Imo,OWERRI,NI</cmt>
</wpt>
<wpt lat="11.855300" lon="13.080900">
<ele>334.9752</ele>
<magvar>0.2</magvar>
<name>DNMA</name>
<cmt>Maiduguri,MAIDUGURI,NI</cmt>
</wpt>
<wpt lat="14.875700" lon="5.265360">
<ele>385.8768</ele>
<magvar>1.2</magvar>
<name>DRRT</name>
<cmt>Tahoua,NG</cmt>
</wpt>
<wpt lat="18.968700" lon="12.868700">
<ele>388.0104</ele>
<magvar>359.5</magvar>
<name>DRZD</name>
<cmt>Dirkou,NG</cmt>
</wpt>
<wpt lat="13.779000" lon="8.983760">
<ele>462.0768</ele>
<magvar>0.6</magvar>
<name>DRZR</name>
<cmt>Zinder,ZINDER,NG</cmt>
</wpt>
<wpt lat="32.306200" lon="10.382100">
<ele>306.0192</ele>
<magvar>358.8</magvar>
<name>DTTD</name>
<cmt>Remada,TS</cmt>
</wpt>
<wpt lat="50.970000" lon="5.375070">
<magvar>0.0</magvar>
<name>EBZH</name>
<cmt>Hasselt,BE</cmt>
</wpt>
<wpt lat="53.362500" lon="11.616700">
<ele>35.052</ele>
<magvar>358.0</magvar>
<name>EDAN</name>
<cmt>Neustadt-Glewe,GM</cmt>
</wpt>
<wpt lat="53.306400" lon="12.753100">
<ele>67.056</ele>
<magvar>357.7</magvar>
<name>EDAX</name>
<cmt>Rechlin Larz,GM</cmt>
</wpt>
<wpt lat="50.704200" lon="12.461100">
<ele>307.848</ele>
<magvar>357.8</magvar>
<name>EDBI</name>
<cmt>Zwickau,GM</cmt>
</wpt>
<wpt lat="50.915200" lon="11.714500">
<ele>374.2944</ele>
<magvar>358.0</magvar>
<name>EDBJ</name>
<cmt>Jena Schongleina,GM</cmt>
</wpt>
<wpt lat="51.200300" lon="11.193900">
<ele>138.0744</ele>
<magvar>358.2</magvar>
<name>EDBS</name>
<cmt>Sömmerda,GM</cmt>
</wpt>
<wpt lat="52.633000" lon="13.767000">
<ele>80.1624</ele>
<magvar>357.4</magvar>
<name>EDBW</name>
<cmt>Werneuchen,GM</cmt>
</wpt>
<wpt lat="52.480600" lon="14.085300">
<ele>67.9704</ele>
<magvar>357.3</magvar>
<name>EDCE</name>
<cmt>Eggersdorf B. Müncheberg,GM</cmt>
</wpt>
<wpt lat="50.026400" lon="8.543130">
<ele>110.9472</ele>
<magvar>358.9</magvar>
<name>EDDF</name>
<cmt>Frankfurt am Main Intl,FRANKFURT/MAIN,GM</cmt>
</wpt>
<wpt lat="51.064200" lon="9.423060">
<ele>401.1168</ele>
<magvar>358.7</magvar>
<name>EDEM</name>
<cmt>Homberg/Efze Mosenberg,GM</cmt>
</wpt>
<wpt lat="50.336900" lon="8.879170">
<ele>121.0056</ele>
<magvar>358.8</magvar>
<name>EDFB</name>
<cmt>Reichelsheim,GM</cmt>
</wpt>
<wpt lat="49.940000" lon="9.063610">
<ele>124.968</ele>
<magvar>358.8</magvar>
<name>EDFC</name>
<cmt>Aschaffenburg,GM</cmt>
</wpt>
<wpt lat="50.198300" lon="9.171110">
<ele>125.8824</ele>
<magvar>358.7</magvar>
<name>EDFG</name>
<cmt>Gelnhausen,GM</cmt>
</wpt>
<wpt lat="50.680600" lon="8.173610">
<ele>559.0032</ele>
<magvar>359.1</magvar>
<name>EDGB</name>
<cmt>Breitscheid/Dillkreis,GM</cmt>
</wpt>
<wpt lat="51.236700" lon="8.820000">
<ele>442.8744</ele>
<magvar>358.9</magvar>
<name>EDGN</name>
<cmt>Nordenbeck,GM</cmt>
</wpt>
<wpt lat="50.795800" lon="8.464440">
<ele>505.0536</ele>
<magvar>359.0</magvar>
<name>EDGT</name>
<cmt>Bottenhorn,GM</cmt>
</wpt>
<wpt lat="49.305000" lon="8.660000">
<ele>104.8512</ele>
<magvar>358.9</magvar>
<name>EDGX</name>
<cmt>Walldorf,GM</cmt>
</wpt>
<wpt lat="53.016700" lon="11.145600">
<ele>14.9352</ele>
<magvar>358.2</magvar>
<name>EDHC</name>
<cmt>Lüchow-Rehbeck,GM</cmt>
</wpt>
<wpt lat="47.988800" lon="10.239500">
<ele>633.0696</ele>
<magvar>358.4</magvar>
<name>EDJA</name>
<cmt>Memmingen Allgau,GM</cmt>
</wpt>
<wpt lat="48.280000" lon="12.506100">
<ele>403.86</ele>
<magvar>357.8</magvar>
<name>EDMY</name>
<cmt>Mühldorf am Inn,GM</cmt>
</wpt>
<wpt lat="48.873600" lon="10.506400">
<ele>420.0144</ele>
<magvar>358.4</magvar>
<name>EDNO</name>
<cmt>Nördlingen,GM</cmt>
</wpt>
<wpt lat="48.288100" lon="10.445300">
<ele>491.0328</ele>
<magvar>358.4</magvar>
<name>EDNU</name>
<cmt>Thannhausen,GM</cmt>
</wpt>
<wpt lat="47.946900" lon="12.206100">
<ele>469.0872</ele>
<magvar>357.9</magvar>
<name>EDNV</name>
<cmt>Vogtareuth,GM</cmt>
</wpt>
<wpt lat="48.239000" lon="11.559200">
<ele>486.4608</ele>
<magvar>358.1</magvar>
<name>EDNX</name>
<cmt>Oberschleissheim,GM</cmt>
</wpt>
<wpt lat="52.529200" lon="11.355600">
<ele>74.9808</ele>
<magvar>358.1</magvar>
<name>EDOC</name>
<cmt>Gardelegen,GM</cmt>
</wpt>
<wpt lat="51.375000" lon="11.145000">
<ele>230.124</ele>
<magvar>358.2</magvar>
<name>EDOF</name>
<cmt>Bad Frankenhausen,GM</cmt>
</wpt>
<wpt lat="48.777800" lon="10.264700">
<ele>583.9968</ele>
<magvar>358.4</magvar>
<name>EDPA</name>
<cmt>Aalen Heidenheim Elchingen,GM</cmt>
</wpt>
<wpt lat="50.264400" lon="10.996400">
<ele>448.9704</ele>
<magvar>358.2</magvar>
<name>EDQC</name>
<cmt>Coburg-Brandensteinsebene,COBURG,GM</cmt>
</wpt>
<wpt lat="50.559700" lon="7.137500">
<ele>205.1304</ele>
<magvar>359.4</magvar>
<name>EDRA</name>
<cmt>Bad Neuenahr-Ahrweiler,GM</cmt>
</wpt>
<wpt lat="49.266700" lon="7.491670">
<ele>380.0856</ele>
<magvar>359.2</magvar>
<name>EDRP</name>
<cmt>Pirmasens-Zweibruecken,GM</cmt>
</wpt>
<wpt lat="50.566300" lon="7.653830">
<ele>289.8648</ele>
<magvar>359.2</magvar>
<name>EDRW</name>
<cmt>Dierdorf-Wienau,GM</cmt>
</wpt>
<wpt lat="47.976600" lon="8.903930">
<ele>807.1104</ele>
<magvar>358.8</magvar>
<name>EDSN</name>
<cmt>Neuhausen Ob Eck,GM</cmt>
</wpt>
<wpt lat="48.791300" lon="8.187140">
<ele>123.444</ele>
<magvar>359.0</magvar>
<name>EDTB</name>
<cmt>Baden Oos,GM</cmt>
</wpt>
<wpt lat="47.903200" lon="7.617830">
<ele>211.836</ele>
<magvar>359.1</magvar>
<name>EDTG</name>
<cmt>Bremgarten,GM</cmt>
</wpt>
<wpt lat="48.803300" lon="9.928610">
<ele>434.0352</ele>
<magvar>358.5</magvar>
<name>EDTH</name>
<cmt>Heubach,GM</cmt>
</wpt>
<wpt lat="47.909400" lon="9.252780">
<ele>701.9544</ele>
<magvar>358.7</magvar>
<name>EDTP</name>
<cmt>Pfullendorf Bm,GM</cmt>
</wpt>
<wpt lat="52.650700" lon="12.487800">
<ele>45.1104</ele>
<magvar>357.8</magvar>
<name>EDUA</name>
<cmt>Stechow-Ferchesar,GM</cmt>
</wpt>
<wpt lat="51.547900" lon="13.229000">
<ele>86.5632</ele>
<magvar>357.6</magvar>
<name>EDUF</name>
<cmt>Falkenberg Lonnewitz,GM</cmt>
</wpt>
<wpt lat="51.808100" lon="9.379440">
<ele>284.988</ele>
<magvar>358.7</magvar>
<name>EDVI</name>
<cmt>Hoexter-Holzminden,GM</cmt>
</wpt>
<wpt lat="52.179800" lon="9.945670">
<ele>89.3064</ele>
<magvar>358.6</magvar>
<name>EDVM</name>
<cmt>Hildesheim,GM</cmt>
</wpt>
<wpt lat="52.155600" lon="10.427800">
<ele>99.9744</ele>
<magvar>358.4</magvar>
<name>EDVS</name>
<cmt>Salzgitter-Druette,GM</cmt>
</wpt>
<wpt lat="52.984700" lon="10.466700">
<ele>74.9808</ele>
<magvar>358.4</magvar>
<name>EDVU</name>
<cmt>Uelzen,GM</cmt>
</wpt>
<wpt lat="54.155000" lon="8.902780">
<ele>2.1336</ele>
<magvar>359.0</magvar>
<name>EDXB</name>
<cmt>Heide-Büsum,GM</cmt>
</wpt>
<wpt lat="52.277200" lon="7.492220">
<ele>39.9288</ele>
<magvar>359.3</magvar>
<name>EDXE</name>
<cmt>Rheine-Eschendorf,GM</cmt>
</wpt>
<wpt lat="54.186900" lon="7.916670">
<ele>2.1336</ele>
<magvar>359.3</magvar>
<name>EDXH</name>
<cmt>Helgoland Düne,GM</cmt>
</wpt>
<wpt lat="52.711100" lon="9.163610">
<ele>24.9936</ele>
<magvar>358.8</magvar>
<name>EDXI</name>
<cmt>Nienburg-Holzbalge,GM</cmt>
</wpt>
<wpt lat="59.260300" lon="24.208500">
<ele>19.812</ele>
<magvar>353.0</magvar>
<name>EEEI</name>
<cmt>Ämari Air Base,EN</cmt>
</wpt>
<wpt lat="58.419000" lon="24.472800">
<ele>14.3256</ele>
<magvar>353.1</magvar>
<name>EEPU</name>
<cmt>Pärnu,PARNU,EN</cmt>
</wpt>
<wpt lat="68.362600" lon="23.424300">
<ele>306.324</ele>
<magvar>351.0</magvar>
<name>EFET</name>
<cmt>Enontekio,ENONTEKIO,FI</cmt>
</wpt>
<wpt lat="60.462500" lon="23.652500">
<ele>116.1288</ele>
<magvar>352.9</magvar>
<name>EFIK</name>
<cmt>Kiikala,FI</cmt>
</wpt>
<wpt lat="68.607300" lon="27.405300">
<ele>146.6088</ele>
<magvar>348.7</magvar>
<name>EFIV</name>
<cmt>Ivalo,IVALO,FI</cmt>
</wpt>
<wpt lat="65.778700" lon="24.582100">
<ele>18.5928</ele>
<magvar>351.1</magvar>
<name>EFKE</name>
<cmt>Kemi-Tornio,KEMI,FI</cmt>
</wpt>
<wpt lat="63.125300" lon="25.124200">
<ele>153.0096</ele>
<magvar>351.6</magvar>
<name>EFKV</name>
<cmt>Kivijärvi,FI</cmt>
</wpt>
<wpt lat="61.245600" lon="22.193400">
<ele>45.1104</ele>
<magvar>353.4</magvar>
<name>EFPI</name>
<cmt>Piikajarvi,FI</cmt>
</wpt>
<wpt lat="61.461700" lon="21.800000">
<ele>13.4112</ele>
<magvar>353.5</magvar>
<name>EFPO</name>
<cmt>Pori,PORI,FI</cmt>
</wpt>
<wpt lat="65.973100" lon="26.365300">
<ele>164.8968</ele>
<magvar>350.2</magvar>
<name>EFRU</name>
<cmt>Ranua,FI</cmt>
</wpt>
<wpt lat="61.943100" lon="28.945100">
<ele>94.7928</ele>
<magvar>350.4</magvar>
<name>EFSA</name>
<cmt>Savonlinna,SAVONLINNA,FI</cmt>
</wpt>
<wpt lat="67.395000" lon="26.619100">
<ele>183.4896</ele>
<magvar>349.5</magvar>
<name>EFSO</name>
<cmt>Sodankyla,SODANKYLA,FI</cmt>
</wpt>
<wpt lat="60.896400" lon="26.938400">
<ele>103.3272</ele>
<magvar>351.5</magvar>
<name>EFUT</name>
<cmt>Utti Air Base,FI</cmt>
</wpt>
<wpt lat="51.505300" lon="0.055278">
<ele>5.7912</ele>
<magvar>1.8</magvar>
<name>EGLC</name>
<cmt>London City,LONDON,UK</cmt>
</wpt>
<wpt lat="52.205000" lon="0.175000">
<ele>14.3256</ele>
<magvar>1.8</magvar>
<name>EGSC</name>
<cmt>Cambridge,CAMBRIDGE,UK</cmt>
</wpt>
<wpt lat="52.435300" lon="1.618330">
<ele>24.384</ele>
<magvar>1.3</magvar>
<name>EGSM</name>
<cmt>Beccles,UK</cmt>
</wpt>
<wpt lat="51.914400" lon="0.682500">
<ele>68.8848</ele>
<magvar>1.6</magvar>
<name>EGSR</name>
<cmt>Earls Colne,UK</cmt>
</wpt>
<wpt lat="51.885000" lon="0.235000">
<ele>106.0704</ele>
<magvar>1.7</magvar>
<name>EGSS</name>
<cmt>Stansted,LONDON,UK</cmt>
</wpt>
<wpt lat="52.090800" lon="0.131944">
<ele>38.1</ele>
<magvar>1.8</magvar>
<name>EGSU</name>
<cmt>Duxford,UK</cmt>
</wpt>
<wpt lat="52.060600" lon="5.873060">
<ele>48.1584</ele>
<magvar>359.9</magvar>
<name>EHDL</name>
<cmt>Deelen Air Base,NL</cmt>
</wpt>
<wpt lat="52.166100" lon="4.417940">
<magvar>0.3</magvar>
<name>EHVB</name>
<cmt>Valkenburg,NL</cmt>
</wpt>
<wpt lat="55.941400" lon="12.382200">
<ele>29.5656</ele>
<magvar>357.7</magvar>
<name>EKGH</name>
<cmt>Grønholt Hillerød,DA</cmt>
</wpt>
<wpt lat="55.889500" lon="10.613700">
<magvar>358.4</magvar>
<name>EKSS</name>
<cmt>Samsø,DA</cmt>
</wpt>
<wpt lat="49.626600" lon="6.211520">
<ele>376.1232</ele>
<magvar>359.6</magvar>
<name>ELLX</name>
<cmt>Luxembourg-Findel Intl,LUXEMBOURG,LU</cmt>
</wpt>
<wpt lat="61.015600" lon="9.288060">
<ele>822.0456</ele>
<magvar>359.0</magvar>
<name>ENFG</name>
<cmt>Leirin,FAGERNES,NO</cmt>
</wpt>
<wpt lat="70.486700" lon="22.139700">
<ele>6.4008</ele>
<magvar>351.1</magvar>
<name>ENHK</name>
<cmt>Hasvik,HASVIK,NO</cmt>
</wpt>
<wpt lat="69.040300" lon="23.034000">
<magvar>351.0</magvar>
<name>ENKA</name>
<cmt>Kautokeino Air Base,NO</cmt>
</wpt>
<wpt lat="59.185000" lon="9.566940">
<ele>141.1224</ele>
<magvar>358.8</magvar>
<name>ENSN</name>
<cmt>Skien,SKIEN,NO</cmt>
</wpt>
<wpt lat="70.355400" lon="31.044900">
<ele>12.8016</ele>
<magvar>346.0</magvar>
<name>ENSS</name>
<cmt>Svartnes,VARDO,NO</cmt>
</wpt>
<wpt lat="65.956800" lon="12.468900">
<ele>17.0688</ele>
<magvar>357.4</magvar>
<name>ENST</name>
<cmt>Stokka,SANDNESSJOEN,NO</cmt>
</wpt>
<wpt lat="70.065300" lon="29.844700">
<ele>38.7096</ele>
<magvar>346.8</magvar>
<name>ENVD</name>
<cmt>Vadso,VADSO,NO</cmt>
</wpt>
<wpt lat="53.524400" lon="18.849200">
<ele>36.8808</ele>
<magvar>355.8</magvar>
<name>EPGI</name>
<cmt>Grudziadz Lisie,PL</cmt>
</wpt>
<wpt lat="50.898900" lon="15.785600">
<ele>341.0712</ele>
<magvar>356.9</magvar>
<name>EPJG</name>
<cmt>Jelenia Gora Glider,PL</cmt>
</wpt>
<wpt lat="50.896700" lon="20.731700">
<ele>307.848</ele>
<magvar>355.6</magvar>
<name>EPKA</name>
<cmt>Kielce Maslow,PL</cmt>
</wpt>
<wpt lat="51.551700" lon="19.179100">
<ele>192.9384</ele>
<magvar>355.9</magvar>
<name>EPLK</name>
<cmt>Lask,PL</cmt>
</wpt>
<wpt lat="51.423000" lon="16.196200">
<ele>156.0576</ele>
<magvar>356.7</magvar>
<name>EPLU</name>
<cmt>Lubin,PL</cmt>
</wpt>
<wpt lat="54.026900" lon="19.134200">
<ele>4.8768</ele>
<magvar>355.7</magvar>
<name>EPMB</name>
<cmt>Malbork,PL</cmt>
</wpt>
<wpt lat="54.579700" lon="18.517200">
<ele>43.8912</ele>
<magvar>355.8</magvar>
<name>EPOK</name>
<cmt>Oksywie,PL</cmt>
</wpt>
<wpt lat="50.633300" lon="17.781700">
<ele>188.976</ele>
<magvar>356.4</magvar>
<name>EPOP</name>
<cmt>Opole Polska Now,PL</cmt>
</wpt>
<wpt lat="52.421000" lon="16.826300">
<ele>93.8784</ele>
<magvar>356.5</magvar>
<name>EPPO</name>
<cmt>Poznań-Ławica,POZNAN,PL</cmt>
</wpt>
<wpt lat="54.248000" lon="18.671600">
<ele>6.4008</ele>
<magvar>355.8</magvar>
<name>EPPR</name>
<cmt>Pruszcz Gdanski,PL</cmt>
</wpt>
<wpt lat="51.383100" lon="19.688300">
<ele>205.1304</ele>
<magvar>355.8</magvar>
<name>EPPT</name>
<cmt>Piotrków Trybunalski-Bujny,PL</cmt>
</wpt>
<wpt lat="51.478900" lon="21.110000">
<ele>145.9992</ele>
<magvar>355.4</magvar>
<name>EPRP</name>
<cmt>Radom Piastr Glider,PL</cmt>
</wpt>
<wpt lat="58.134500" lon="13.602600">
<magvar>357.2</magvar>
<name>ESGC</name>
<cmt>Ålleberg,SW</cmt>
</wpt>
<wpt lat="57.662800" lon="12.279800">
<ele>154.2288</ele>
<magvar>357.7</magvar>
<name>ESGG</name>
<cmt>Gothenburg-Landvetter,GOTEBORG,SW</cmt>
</wpt>
<wpt lat="58.513800" lon="14.507100">
<ele>93.8784</ele>
<magvar>356.8</magvar>
<name>ESIA</name>
<cmt>Karlsborg Air Base,SW</cmt>
</wpt>
<wpt lat="59.345900" lon="14.495900">
<ele>121.92</ele>
<magvar>356.8</magvar>
<name>ESKK</name>
<cmt>Karlskoga,KARLSKOGA,SW</cmt>
</wpt>
<wpt lat="58.790800" lon="16.571200">
<magvar>356.0</magvar>
<name>ESKX</name>
<cmt>Björkvik Air Base,SW</cmt>
</wpt>
<wpt lat="56.863000" lon="16.656100">
<magvar>356.2</magvar>
<name>ESMB</name>
<cmt>Borglanda,SW</cmt>
</wpt>
<wpt lat="57.670600" lon="14.943000">
<magvar>356.7</magvar>
<name>ESMC</name>
<cmt>Ränneslätt,SW</cmt>
</wpt>
<wpt lat="56.184800" lon="12.576100">
<magvar>357.7</magvar>
<name>ESMH</name>
<cmt>Höganäs,SW</cmt>
</wpt>
<wpt lat="61.768100" lon="17.080700">
<ele>28.956</ele>
<magvar>355.5</magvar>
<name>ESNH</name>
<cmt>Hudiksvall,SW</cmt>
</wpt>
<wpt lat="63.128600" lon="14.802800">
<ele>376.7328</ele>
<magvar>356.4</magvar>
<name>ESNM</name>
<cmt>Optand,SW</cmt>
</wpt>
<wpt lat="62.528100" lon="17.443900">
<ele>4.8768</ele>
<magvar>355.2</magvar>
<name>ESNN</name>
<cmt>Sundsvall-Härnösand,SUNDSVALL-HARNOSAND,SW</cmt>
</wpt>
<wpt lat="60.587900" lon="16.586800">
<magvar>355.8</magvar>
<name>ESOL</name>
<cmt>Lemstanas,SW</cmt>
</wpt>
<wpt lat="65.875300" lon="20.149900">
<ele>181.9656</ele>
<magvar>353.3</magvar>
<name>ESPE</name>
<cmt>Vidsel Air Base,SW</cmt>
</wpt>
<wpt lat="64.960900" lon="17.696600">
<ele>278.892</ele>
<magvar>354.7</magvar>
<name>ESUD</name>
<cmt>Storuman,STORUMAN,SW</cmt>
</wpt>
<wpt lat="64.159100" lon="17.274300">
<magvar>355.0</magvar>
<name>ESUS</name>
<cmt>Åsele,SW</cmt>
</wpt>
<wpt lat="60.551700" lon="15.081600">
<magvar>356.5</magvar>
<name>ESVG</name>
<cmt>Gagnef,SW</cmt>
</wpt>
<wpt lat="60.658800" lon="13.726600">
<magvar>357.0</magvar>
<name>ESVM</name>
<cmt>Skinnlanda,SW</cmt>
</wpt>
<wpt lat="60.785100" lon="14.827200">
<magvar>356.5</magvar>
<name>ESVS</name>
<cmt>Siljansnäs,SW</cmt>
</wpt>
<wpt lat="52.591200" lon="10.022100">
<ele>39.3192</ele>
<magvar>358.5</magvar>
<name>ETHC</name>
<cmt>Celle,GM</cmt>
</wpt>
<wpt lat="49.698700" lon="11.940200">
<ele>415.4424</ele>
<magvar>358.0</magvar>
<name>ETIC</name>
<cmt>Grafenwohr Army Air Field,GM</cmt>
</wpt>
<wpt lat="54.624800" lon="9.346000">
<ele>19.812</ele>
<magvar>358.8</magvar>
<name>ETME</name>
<cmt>Eggebeck Air Base,GM</cmt>
</wpt>
<wpt lat="53.533500" lon="7.888670">
<ele>7.3152</ele>
<magvar>359.3</magvar>
<name>ETNJ</name>
<cmt>Jever,JEVER,GM</cmt>
</wpt>
<wpt lat="52.457300" lon="9.427170">
<ele>56.9976</ele>
<magvar>358.7</magvar>
<name>ETNW</name>
<cmt>Wunstorf,WUNSTORF,GM</cmt>
</wpt>
<wpt lat="49.563600" lon="8.463390">
<ele>94.1832</ele>
<magvar>358.9</magvar>
<name>ETOR</name>
<cmt>Coleman Army Air Field,MANNHEIM,GM</cmt>
</wpt>
<wpt lat="50.049800" lon="8.325400">
<ele>140.5128</ele>
<magvar>359.0</magvar>
<name>ETOU</name>
<cmt>Wiesbaden Army Air Field,GM</cmt>
</wpt>
<wpt lat="48.205700" lon="11.267000">
<ele>519.0744</ele>
<magvar>358.2</magvar>
<name>ETSF</name>
<cmt>Fürstenfeldbruck Air Base,GM</cmt>
</wpt>
<wpt lat="56.923600" lon="23.971100">
<ele>10.3632</ele>
<magvar>353.7</magvar>
<name>EVRA</name>
<cmt>Riga Intl,RIGA,LG</cmt>
</wpt>
<wpt lat="57.357800" lon="21.544200">
<ele>5.7912</ele>
<magvar>354.4</magvar>
<name>EVVA</name>
<cmt>Ventspils Intl,VENTSPILS,LG</cmt>
</wpt>
<wpt lat="54.879800" lon="23.881500">
<ele>74.9808</ele>
<magvar>354.1</magvar>
<name>EYKS</name>
<cmt>S Dariaus,LH</cmt>
</wpt>
<wpt lat="55.973200" lon="21.093900">
<ele>10.0584</ele>
<magvar>354.8</magvar>
<name>EYPA</name>
<cmt>Palanga Intl,PALANGA,LH</cmt>
</wpt>
<wpt lat="55.610800" lon="24.220800">
<ele>54.864</ele>
<magvar>353.9</magvar>
<name>EYRO</name>
<cmt>Rojunai,LH</cmt>
</wpt>
<wpt lat="5.636920" lon="10.750800">
<ele>1207.9224</ele>
<magvar>1.6</magvar>
<name>FKKM</name>
<cmt>Foumban Nkounja,FOUMBAN,CM</cmt>
</wpt>
<wpt lat="3.836040" lon="11.523500">
<ele>751.0272</ele>
<magvar>1.8</magvar>
<name>FKKY</name>
<cmt>Yaoundé,YAOUNDE/VILLE,CM</cmt>
</wpt>
<wpt lat="2.075640" lon="11.493200">
<ele>600.1512</ele>
<magvar>2.2</magvar>
<name>FOOB</name>
<cmt>Bitam,GB</cmt>
</wpt>
<wpt lat="0.783000" lon="11.550000">
<ele>583.0824</ele>
<magvar>2.5</magvar>
<name>FOOM</name>
<cmt>Mitzic,GB</cmt>
</wpt>
<wpt lat="12.133700" lon="15.034000">
<ele>295.0464</ele>
<magvar>359.9</magvar>
<name>FTTJ</name>
<cmt>N'Djamena Intl,N'DJAMENA,CD</cmt>
</wpt>
<wpt lat="9.400000" lon="16.300000">
<ele>356.9208</ele>
<magvar>0.0</magvar>
<name>FTTH</name>
<cmt>Lai,CD</cmt>
</wpt>
<wpt lat="13.443300" lon="14.739400">
<ele>291.084</ele>
<magvar>359.8</magvar>
<name>FTTL</name>
<cmt>Bol,CD</cmt>
</wpt>
<wpt lat="11.034000" lon="20.274000">
<ele>432.816</ele>
<magvar>359.1</magvar>
<name>FTTN</name>
<cmt>Am Timan,CD</cmt>
</wpt>
<wpt lat="3.367000" lon="20.300000">
<ele>499.872</ele>
<magvar>0.0</magvar>
<name>FZFS</name>
<cmt>Karawa,CG</cmt>
</wpt>
<wpt lat="1.565720" lon="30.220800">
<ele>1232.916</ele>
<magvar>359.0</magvar>
<name>FZKA</name>
<cmt>Bunia,CG</cmt>
</wpt>
<wpt lat="20.243000" lon="0.977308">
<ele>494.0808</ele>
<magvar>1.4</magvar>
<name>GATS</name>
<cmt>Tessalit,ML</cmt>
</wpt>
<wpt lat="7.666090" lon="36.816600">
<ele>1676.4</ele>
<magvar>358.2</magvar>
<name>HAJM</name>
<cmt>Jimma,ET</cmt>
</wpt>
<wpt lat="10.018500" lon="34.586300">
<ele>1554.48</ele>
<magvar>357.9</magvar>
<name>HASO</name>
<cmt>Asosa,ET</cmt>
</wpt>
<wpt lat="27.977300" lon="34.395000">
<ele>43.5864</ele>
<magvar>356.5</magvar>
<name>HESH</name>
<cmt>Sharm El Sheikh Intl,EG</cmt>
</wpt>
<wpt lat="23.964400" lon="32.820000">
<ele>201.7776</ele>
<magvar>356.9</magvar>
<name>HESN</name>
<cmt>Aswan Intl,ASWAN,EG</cmt>
</wpt>
<wpt lat="15.291900" lon="38.910700">
<ele>2335.0728</ele>
<magvar>357.6</magvar>
<name>HHAS</name>
<cmt>Asmara Intl,ASMARA,ER</cmt>
</wpt>
<wpt lat="15.117000" lon="36.683000">
<ele>615.0864</ele>
<magvar>357.5</magvar>
<name>HHTS</name>
<cmt>Tessenei,ER</cmt>
</wpt>
<wpt lat="28.638500" lon="21.438000">
<ele>99.06</ele>
<magvar>357.5</magvar>
<name>HLGL</name>
<cmt>Warehouse 59e,LY</cmt>
</wpt>
<wpt lat="12.053500" lon="24.956200">
<ele>641.9088</ele>
<magvar>358.4</magvar>
<name>HSNN</name>
<cmt>Nyala,NYALA,SU</cmt>
</wpt>
<wpt lat="15.355600" lon="35.727800">
<ele>451.104</ele>
<magvar>357.5</magvar>
<name>HSNW</name>
<cmt>New Halfa,SU</cmt>
</wpt>
<wpt lat="7.200000" lon="34.100000">
<ele>609.6</ele>
<magvar>358.2</magvar>
<name>HSPA</name>
<cmt>Pachella,SU</cmt>
</wpt>
<wpt lat="7.725830" lon="27.975000">
<ele>466.0392</ele>
<magvar>358.4</magvar>
<name>HSWW</name>
<cmt>Wau,SU</cmt>
</wpt>
<wpt lat="30.859400" lon="34.443100">
<ele>251.46</ele>
<magvar>356.3</magvar>
<name>LL60</name>
<cmt>Nizzana West,IS</cmt>
</wpt>
<wpt lat="23.222300" lon="68.891300">
<ele>41.148</ele>
<magvar>359.9</magvar>
<name>VA1K</name>
<cmt>Raedhanpur,IN</cmt>
</wpt>
<wpt lat="24.430800" lon="74.867800">
<ele>492.8616</ele>
<magvar>0.0</magvar>
<name>VA1N</name>
<cmt>Nimach,IN</cmt>
</wpt>
<wpt lat="27.112900" lon="72.389000">
<ele>238.0488</ele>
<magvar>359.4</magvar>
<name>VA2A</name>
<cmt>Phalodi,IN</cmt>
</wpt>
<wpt lat="23.095100" lon="75.885300">
<ele>507.7968</ele>
<magvar>0.2</magvar>
<name>VE85</name>
<cmt>Bentayan,IN</cmt>
</wpt>
<wpt lat="3.808450" lon="34.360100">
<ele>866.2416</ele>
<magvar>358.7</magvar>
<name>KE-0004</name>
<cmt>Oropoi,KE</cmt>
</wpt>
<wpt lat="0.530583" lon="35.734100">
<ele>1891.284</ele>
<magvar>359.4</magvar>
<name>KE-6996</name>
<cmt>Kapchomuswo (Kabarnet),KE</cmt>
</wpt>
<wpt lat="35.143100" lon="69.314400">
<ele>1697.4312</ele>
<magvar>357.2</magvar>
<name>AF-0003</name>
<cmt>Charikar,AF</cmt>
</wpt>
<wpt lat="42.828900" lon="75.336000">
<ele>844.296</ele>
<magvar>355.3</magvar>
<name>KG-0007</name>
<cmt>Tokmok,KG</cmt>
</wpt>
<wpt lat="40.042700" lon="70.838100">
<ele>1058.8752</ele>
<magvar>355.7</magvar>
<name>UA30</name>
<cmt>Batken,KG</cmt>
</wpt>
<wpt lat="42.437400" lon="76.130800">
<ele>1623.3648</ele>
<magvar>355.6</magvar>
<name>KG-0023</name>
<cmt>Rybachye/Chu,KG</cmt>
</wpt>
<wpt lat="39.323400" lon="125.901000">
<magvar>8.3</magvar>
<name>KP-0010</name>
<cmt>Pyong Ni South Highway Strip,KN</cmt>
</wpt>
<wpt lat="39.730900" lon="125.111000">
<ele>17.3736</ele>
<magvar>8.4</magvar>
<name>KP-0012</name>
<cmt>Kwaksan,KN</cmt>
</wpt>
<wpt lat="38.026600" lon="127.367000">
<ele>141.4272</ele>
<magvar>8.1</magvar>
<name>RK14</name>
<cmt>G 231,KS</cmt>
</wpt>
<wpt lat="38.119100" lon="127.685000">
<ele>140.208</ele>
<magvar>8.2</magvar>
<name>RK22</name>
<cmt>G 313,KS</cmt>
</wpt>
<wpt lat="37.895500" lon="126.972000">
<ele>116.1288</ele>
<magvar>8.0</magvar>
<name>RK27</name>
<cmt>G 218,KS</cmt>
</wpt>
<wpt lat="38.018900" lon="126.977000">
<ele>42.0624</ele>
<magvar>8.1</magvar>
<name>RK35</name>
<cmt>G 225,KS</cmt>
</wpt>
<wpt lat="38.199200" lon="127.222000">
<ele>192.024</ele>
<magvar>8.1</magvar>
<name>RK39</name>
<cmt>G 239,KS</cmt>
</wpt>
<wpt lat="38.056700" lon="127.795000">
<ele>179.832</ele>
<magvar>8.1</magvar>
<name>RK42</name>
<cmt>G 311,KS</cmt>
</wpt>
<wpt lat="38.105500" lon="128.200000">
<ele>209.7024</ele>
<magvar>8.2</magvar>
<name>RK43</name>
<cmt>G 414,KS</cmt>
</wpt>
<wpt lat="35.342100" lon="127.030000">
<ele>52.7304</ele>
<magvar>7.2</magvar>
<name>RK6D</name>
<cmt>G 710,KS</cmt>
</wpt>
<wpt lat="37.162900" lon="128.219000">
<ele>281.94</ele>
<magvar>7.9</magvar>
<name>RK6O</name>
<cmt>G 605,KS</cmt>
</wpt>
<wpt lat="40.771900" lon="19.901900">
<ele>41.148</ele>
<magvar>356.8</magvar>
<name>LAKV</name>
<cmt>Kucova,AL</cmt>
</wpt>
<wpt lat="42.569600" lon="27.515200">
<ele>41.148</ele>
<magvar>355.5</magvar>
<name>LBBG</name>
<cmt>Burgas,BURGAS,BU</cmt>
</wpt>
<wpt lat="42.376700" lon="25.655200">
<ele>170.0784</ele>
<magvar>355.8</magvar>
<name>LBSZ</name>
<cmt>Stara Zagora,BU</cmt>
</wpt>
<wpt lat="34.875100" lon="33.624900">
<ele>2.4384</ele>
<magvar>355.9</magvar>
<name>LCLK</name>
<cmt>Larnaca Intl,LARNACA,CY</cmt>
</wpt>
<wpt lat="42.561400" lon="18.268200">
<ele>160.6296</ele>
<magvar>356.9</magvar>
<name>LDDU</name>
<cmt>Dubrovnik,DUBROVNIK,HR</cmt>
</wpt>
<wpt lat="45.542200" lon="18.636200">
<ele>91.1352</ele>
<magvar>356.6</magvar>
<name>LDOC</name>
<cmt>Čepin,HR</cmt>
</wpt>
<wpt lat="51.196100" lon="51.299400">
<ele>38.1</ele>
<magvar>349.9</magvar>
<name>KZ-0062</name>
<cmt>Uralsk West,KZ</cmt>
</wpt>
<wpt lat="45.766900" lon="15.848600">
<ele>121.92</ele>
<magvar>357.2</magvar>
<name>LDZL</name>
<cmt>Lučko,HR</cmt>
</wpt>
<wpt lat="42.261700" lon="3.111700">
<magvar>0.0</magvar>
<name>LEAP</name>
<cmt>Ampuriabrava,SP</cmt>
</wpt>
<wpt lat="38.872900" lon="1.373120">
<ele>6.096</ele>
<magvar>0.4</magvar>
<name>LEIB</name>
<cmt>Ibiza,IBIZA,SP</cmt>
</wpt>
<wpt lat="41.147400" lon="1.167170">
<ele>71.3232</ele>
<magvar>0.5</magvar>
<name>LERS</name>
<cmt>Reus Air Base,REUS,SP</cmt>
</wpt>
<wpt lat="49.595800" lon="3.631670">
<ele>78.0288</ele>
<magvar>0.3</magvar>
<name>LFAF</name>
<cmt>Laon - Chambry,FR</cmt>
</wpt>
<wpt lat="48.710600" lon="0.003889">
<ele>177.0888</ele>
<magvar>1.4</magvar>
<name>LFAJ</name>
<cmt>Argentan,FR</cmt>
</wpt>
<wpt lat="49.481900" lon="4.364720">
<ele>124.968</ele>
<magvar>0.1</magvar>
<name>LFAP</name>
<cmt>Rethel,FR</cmt>
</wpt>
<wpt lat="46.587700" lon="0.306666">
<ele>128.9304</ele>
<magvar>1.1</magvar>
<name>LFBI</name>
<cmt>Poitiers-Biard,POITIERS,FR</cmt>
</wpt>
<wpt lat="46.222600" lon="2.363960">
<ele>456.2856</ele>
<magvar>0.4</magvar>
<name>LFBK</name>
<cmt>Montluçon-Guéret,FR</cmt>
</wpt>
<wpt lat="43.007800" lon="1.103150">
<ele>416.9664</ele>
<magvar>0.6</magvar>
<name>LFCG</name>
<cmt>Saint-Girons-Antichan,FR</cmt>
</wpt>
<wpt lat="43.771100" lon="2.010830">
<ele>177.0888</ele>
<magvar>0.4</magvar>
<name>LFCQ</name>
<cmt>Graulhet-Montdragon,FR</cmt>
</wpt>
<wpt lat="44.370000" lon="2.028060">
<ele>334.0608</ele>
<magvar>0.4</magvar>
<name>LFCV</name>
<cmt>Villefranche De Rouergue,FR</cmt>
</wpt>
<wpt lat="43.279400" lon="0.521667">
<ele>299.9232</ele>
<magvar>0.8</magvar>
<name>LFDQ</name>
<cmt>Castelnau Magnoac,FR</cmt>
</wpt>
<wpt lat="46.596900" lon="1.602500">
<ele>202.0824</ele>
<magvar>0.7</magvar>
<name>LFEG</name>
<cmt>Argenton Sur Creuse,FR</cmt>
</wpt>
<wpt lat="47.474200" lon="2.393050">
<ele>192.024</ele>
<magvar>0.5</magvar>
<name>LFEH</name>
<cmt>Aubigny-sur-Nère,FR</cmt>
</wpt>
<wpt lat="47.614400" lon="2.781940">
<ele>164.2872</ele>
<magvar>0.4</magvar>
<name>LFEI</name>
<cmt>Briare Chatillon,FR</cmt>
</wpt>
<wpt lat="48.351100" lon="2.425560">
<ele>128.016</ele>
<magvar>0.6</magvar>
<name>LFFB</name>
<cmt>Buno Bonnevaux,FR</cmt>
</wpt>
<wpt lat="47.360600" lon="2.919440">
<ele>177.0888</ele>
<magvar>0.4</magvar>
<name>LFGH</name>
<cmt>Cosne Sur Loire,FR</cmt>
</wpt>
<wpt lat="47.039000" lon="5.427250">
<ele>196.596</ele>
<magvar>359.7</magvar>
<name>LFGJ</name>
<cmt>Dole-Tavaux,DOLE,FR</cmt>
</wpt>
<wpt lat="44.706400" lon="3.888330">
<ele>1014.984</ele>
<magvar>0.0</magvar>
<name>LFHL</name>
<cmt>Langogne - Lespéron,FR</cmt>
</wpt>
<wpt lat="44.544200" lon="4.372190">
<ele>281.3304</ele>
<magvar>359.9</magvar>
<name>LFHO</name>
<cmt>Aubenas-Ardèche Méridional,AUBENAS,FR</cmt>
</wpt>
<wpt lat="46.200900" lon="5.292030">
<ele>261.2136</ele>
<magvar>359.7</magvar>
<name>LFHS</name>
<cmt>Bourg-Ceyzériat,BOURG,FR</cmt>
</wpt>
<wpt lat="46.253900" lon="3.588610">
<ele>316.992</ele>
<magvar>0.1</magvar>
<name>LFHX</name>
<cmt>Lapalisse - Périgny,FR</cmt>
</wpt>
<wpt lat="46.534600" lon="3.423720">
<ele>278.892</ele>
<magvar>0.2</magvar>
<name>LFHY</name>
<cmt>Moulins-Montbeugny,MOULINS,FR</cmt>
</wpt>
<wpt lat="43.108600" lon="0.620278">
<ele>403.86</ele>
<magvar>0.7</magvar>
<name>LFIM</name>
<cmt>St Gaudens Montrejeau,FR</cmt>
</wpt>
<wpt lat="45.607200" lon="4.305830">
<ele>385.8768</ele>
<magvar>359.9</magvar>
<name>LFKM</name>
<cmt>St Galmier,FR</cmt>
</wpt>
<wpt lat="45.396700" lon="6.634720">
<ele>2008.0224</ele>
<magvar>359.3</magvar>
<name>LFLJ</name>
<cmt>Courchevel,FR</cmt>
</wpt>
<wpt lat="45.726400" lon="5.090830">
<ele>250.2408</ele>
<magvar>359.7</magvar>
<name>LFLL</name>
<cmt>Lyon Saint-Exupéry,LYON,FR</cmt>
</wpt>
<wpt lat="46.352500" lon="2.570490">
<ele>235.0008</ele>
<magvar>0.4</magvar>
<name>LFLT</name>
<cmt>Montluçon-Domérat,FR</cmt>
</wpt>
<wpt lat="44.921600" lon="4.969900">
<ele>160.02</ele>
<magvar>359.7</magvar>
<name>LFLU</name>
<cmt>Valence-Chabeuil,VALENCE,FR</cmt>
</wpt>
<wpt lat="45.703600" lon="4.201110">
<ele>334.0608</ele>
<magvar>0.0</magvar>
<name>LFLZ</name>
<cmt>Feurs Chambéon,FR</cmt>
</wpt>
<wpt lat="43.853900" lon="4.413610">
<ele>60.0456</ele>
<magvar>359.8</magvar>
<name>LFME</name>
<cmt>Nîmes Courbessac,FR</cmt>
</wpt>
<wpt lat="43.658400" lon="7.215870">
<ele>3.6576</ele>
<magvar>359.1</magvar>
<name>LFMN</name>
<cmt>Nice-Côte d'Azur,NICE/COTE D'AZUR,FR</cmt>
</wpt>
<wpt lat="43.606400" lon="5.109250">
<ele>59.436</ele>
<magvar>359.6</magvar>
<name>LFMY</name>
<cmt>Salon-de-Provence (BA 701) Air Base,FR</cmt>
</wpt>
<wpt lat="44.029800" lon="5.078060">
<ele>120.0912</ele>
<magvar>359.7</magvar>
<name>LFNH</name>
<cmt>Carpentras,FR</cmt>
</wpt>
<wpt lat="43.800800" lon="3.782500">
<ele>181.9656</ele>
<magvar>0.0</magvar>
<name>LFNL</name>
<cmt>St Martin De Londres,FR</cmt>
</wpt>
<wpt lat="43.996900" lon="4.755560">
<ele>45.1104</ele>
<magvar>359.7</magvar>
<name>LFNT</name>
<cmt>Avignon Pujaut,FR</cmt>
</wpt>
<wpt lat="44.336900" lon="4.908060">
<ele>143.8656</ele>
<magvar>359.7</magvar>
<name>LFNV</name>
<cmt>Valréas Visan,FR</cmt>
</wpt>
<wpt lat="44.668900" lon="5.906110">
<ele>1890.0648</ele>
<magvar>359.5</magvar>
<name>LFNY</name>
<cmt>St Etienne En Devoluy,FR</cmt>
</wpt>
<wpt lat="48.759700" lon="0.659167">
<ele>239.8776</ele>
<magvar>1.2</magvar>
<name>LFOL</name>
<cmt>L'aigle St Michel,FR</cmt>
</wpt>
<wpt lat="48.706700" lon="1.362780">
<ele>135.0264</ele>
<magvar>1.0</magvar>
<name>LFON</name>
<cmt>Dreux Vernouillet,FR</cmt>
</wpt>
<wpt lat="49.165800" lon="2.313060">
<ele>45.1104</ele>
<magvar>0.7</magvar>
<name>LFPA</name>
<cmt>Persan Beaumont,FR</cmt>
</wpt>
<wpt lat="48.604700" lon="2.671120">
<ele>92.0496</ele>
<magvar>0.5</magvar>
<name>LFPM</name>
<cmt>Melun-Villaroche Air Base,MELUN,FR</cmt>
</wpt>
<wpt lat="48.751900" lon="2.106190">
<ele>163.9824</ele>
<magvar>0.7</magvar>
<name>LFPN</name>
<cmt>Toussus-le-Noble,FR</cmt>
</wpt>
<wpt lat="48.341900" lon="2.799440">
<ele>77.1144</ele>
<magvar>0.5</magvar>
<name>LFPU</name>
<cmt>Moret Episy,FR</cmt>
</wpt>
<wpt lat="48.774400" lon="2.201540">
<ele>178.0032</ele>
<magvar>0.7</magvar>
<name>LFPV</name>
<cmt>Villacoublay-Vélizy (BA 107) Air Base,VILLACOUBLAY,FR</cmt>
</wpt>
<wpt lat="50.221800" lon="3.154240">
<ele>78.3336</ele>
<magvar>0.5</magvar>
<name>LFQI</name>
<cmt>Cambrai-Épinoy (BA 103) Air Base,CAMBRAI,FR</cmt>
</wpt>
<wpt lat="50.687200" lon="3.075560">
<ele>21.0312</ele>
<magvar>0.6</magvar>
<name>LFQO</name>
<cmt>Lille/Marcq-en-Baroeul,FR</cmt>
</wpt>
<wpt lat="48.766300" lon="7.200520">
<ele>309.9816</ele>
<magvar>359.3</magvar>
<name>LFQP</name>
<cmt>Phalsbourg-Bourscheid Air Base,FR</cmt>
</wpt>
<wpt lat="48.115000" lon="4.820830">
<ele>348.996</ele>
<magvar>359.9</magvar>
<name>LFQX</name>
<cmt>Juvancourt,FR</cmt>
</wpt>
<wpt lat="47.268900" lon="5.090000">
<ele>221.2848</ele>
<magvar>359.8</magvar>
<name>LFSD</name>
<cmt>Dijon-Bourgogne,DIJON,FR</cmt>
</wpt>
<wpt lat="48.636000" lon="4.899420">
<ele>139.5984</ele>
<magvar>359.9</magvar>
<name>LFSI</name>
<cmt>Saint-Dizier-Robinson Air Base,ST DIZIER,FR</cmt>
</wpt>
<wpt lat="49.659700" lon="5.037780">
<ele>156.0576</ele>
<magvar>0.0</magvar>
<name>LFSJ</name>
<cmt>Sedan Douzy,FR</cmt>
</wpt>
<wpt lat="48.583100" lon="5.955000">
<ele>337.1088</ele>
<magvar>359.6</magvar>
<name>LFSO</name>
<cmt>Nancy-Ochey (BA 133) Air Base,NANCY,FR</cmt>
</wpt>
<wpt lat="44.053300" lon="5.495000">
<ele>833.9328</ele>
<magvar>359.6</magvar>
<name>LFXI</name>
<cmt>Apt St Christol,FR</cmt>
</wpt>
<wpt lat="47.316700" lon="5.516670">
<ele>207.8736</ele>
<magvar>359.7</magvar>
<name>LFYH</name>
<cmt>Broye Les Pesmes,FR</cmt>
</wpt>
<wpt lat="49.459200" lon="5.402500">
<ele>277.0632</ele>
<magvar>359.8</magvar>
<name>LFYK</name>
<cmt>Marville Montmédy,FR</cmt>
</wpt>
<wpt lat="48.660000" lon="3.833890">
<ele>100.2792</ele>
<magvar>0.2</magvar>
<name>LFYM</name>
<cmt>Marigny Le Grand,FR</cmt>
</wpt>
<wpt lat="37.068300" lon="22.025500">
<ele>7.9248</ele>
<magvar>356.8</magvar>
<name>LGKL</name>
<cmt>Kalamata,KALAMATA,GR</cmt>
</wpt>
<wpt lat="38.925500" lon="20.765300">
<ele>3.3528</ele>
<magvar>356.8</magvar>
<name>LGPZ</name>
<cmt>Aktion,PREVEZA,GR</cmt>
</wpt>
<wpt lat="35.531700" lon="24.149700">
<ele>149.352</ele>
<magvar>356.7</magvar>
<name>LGSA</name>
<cmt>Chania Intl,CHANIA,GR</cmt>
</wpt>
<wpt lat="45.990900" lon="18.241000">
<ele>304.8</ele>
<magvar>356.7</magvar>
<name>LHPP</name>
<cmt>Pecs South,PECS,HU</cmt>
</wpt>
<wpt lat="41.486300" lon="13.718800">
<magvar>357.8</magvar>
<name>LIAQ</name>
<cmt>Aquino,IT</cmt>
</wpt>
<wpt lat="35.497900" lon="12.618100">
<ele>21.336</ele>
<magvar>358.2</magvar>
<name>LICD</name>
<cmt>Lampedusa,LAMPEDUSA,IT</cmt>
</wpt>
<wpt lat="36.816500" lon="11.968900">
<ele>193.548</ele>
<magvar>358.3</magvar>
<name>LICG</name>
<cmt>Pantelleria,PANTELLERIA,IT</cmt>
</wpt>
<wpt lat="37.401700" lon="14.922400">
<ele>24.0792</ele>
<magvar>357.8</magvar>
<name>LICZ</name>
<cmt>Sigonella,CATANIA,IT</cmt>
</wpt>
<wpt lat="44.698300" lon="10.662800">
<ele>46.3296</ele>
<magvar>358.3</magvar>
<name>LIDE</name>
<cmt>Reggio Emilia,IT</cmt>
</wpt>
<wpt lat="45.675700" lon="11.496500">
<magvar>358.1</magvar>
<name>LIDH</name>
<cmt>Thiene,IT</cmt>
</wpt>
<wpt lat="44.364300" lon="12.224900">
<magvar>358.0</magvar>
<name>LIDR</name>
<cmt>Ravenna,IT</cmt>
</wpt>
<wpt lat="40.632100" lon="8.290770">
<ele>26.5176</ele>
<magvar>358.9</magvar>
<name>LIEA</name>
<cmt>Fertilia,ALGHERO,IT</cmt>
</wpt>
<wpt lat="40.898700" lon="9.517630">
<ele>11.2776</ele>
<magvar>358.6</magvar>
<name>LIEO</name>
<cmt>Olbia Costa Smeralda,OLBIA,IT</cmt>
</wpt>
<wpt lat="39.894300" lon="8.640400">
<magvar>358.8</magvar>
<name>LIER</name>
<cmt>Oristano (Fenosu),IT</cmt>
</wpt>
<wpt lat="44.952000" lon="9.016530">
<ele>128.9304</ele>
<magvar>358.7</magvar>
<name>LILH</name>
<cmt>Voghera,IT</cmt>
</wpt>
<wpt lat="46.032200" lon="13.186800">
<magvar>357.7</magvar>
<name>LIPD</name>
<cmt>Campoformido Air Base,IT</cmt>
</wpt>
<wpt lat="44.634900" lon="10.810200">
<magvar>358.3</magvar>
<name>LIPM</name>
<cmt>Modena (Marzaglia),IT</cmt>
</wpt>
<wpt lat="45.395700" lon="10.888500">
<ele>72.8472</ele>
<magvar>358.3</magvar>
<name>LIPX</name>
<cmt>Verona,VERONA,IT</cmt>
</wpt>
<wpt lat="41.799400" lon="12.594900">
<ele>130.1496</ele>
<magvar>358.0</magvar>
<name>LIRA</name>
<cmt>Rome Ciampino,ROME,IT</cmt>
</wpt>
<wpt lat="41.542400" lon="12.909000">
<ele>28.3464</ele>
<magvar>357.9</magvar>
<name>LIRL</name>
<cmt>Latina,IT</cmt>
</wpt>
<wpt lat="46.479900" lon="15.686100">
<ele>267.0048</ele>
<magvar>357.2</magvar>
<name>LJMB</name>
<cmt>Maribor,MARIBOR,SI</cmt>
</wpt>
<wpt lat="7.956670" lon="80.728500">
<ele>192.024</ele>
<magvar>2.5</magvar>
<name>VC15</name>
<cmt>Sigiriya,CE</cmt>
</wpt>
<wpt lat="49.974400" lon="14.178100">
<ele>427.0248</ele>
<magvar>357.4</magvar>
<name>LKBU</name>
<cmt>Bubouvice,EZ</cmt>
</wpt>
<wpt lat="50.657200" lon="15.077800">
<ele>451.104</ele>
<magvar>357.1</magvar>
<name>LKHD</name>
<cmt>Hodkovice Nad Mo,EZ</cmt>
</wpt>
<wpt lat="49.418300" lon="13.321900">
<ele>395.9352</ele>
<magvar>357.6</magvar>
<name>LKKT</name>
<cmt>Klatovy Glider,EZ</cmt>
</wpt>
<wpt lat="49.029400" lon="17.439700">
<ele>177.0888</ele>
<magvar>356.6</magvar>
<name>LKKU</name>
<cmt>Kunovice,KUNOVICE,EZ</cmt>
</wpt>
<wpt lat="49.580800" lon="15.762800">
<ele>530.0472</ele>
<magvar>357.0</magvar>
<name>LKPI</name>
<cmt>Pribyslav,EZ</cmt>
</wpt>
<wpt lat="49.447800" lon="17.133900">
<ele>213.0552</ele>
<magvar>356.6</magvar>
<name>LKPJ</name>
<cmt>Prostejov,EZ</cmt>
</wpt>
<wpt lat="31.839500" lon="34.821800">
<ele>58.8264</ele>
<magvar>356.2</magvar>
<name>LLEK</name>
<cmt>Tel Nov Air Base,IS</cmt>
</wpt>
<wpt lat="32.597300" lon="35.228800">
<ele>60.96</ele>
<magvar>356.1</magvar>
<name>LLMG</name>
<cmt>Megiddo,IS</cmt>
</wpt>
<wpt lat="31.208300" lon="35.012300">
<ele>405.384</ele>
<magvar>356.2</magvar>
<name>LLNV</name>
<cmt>Nevatim Air Base,IS</cmt>
</wpt>
<wpt lat="30.776100" lon="34.666700">
<ele>648.0048</ele>
<magvar>356.3</magvar>
<name>LLRM</name>
<cmt>Ramon Air Base,IS</cmt>
</wpt>
<wpt lat="47.788300" lon="15.301700">
<ele>860.1456</ele>
<magvar>357.2</magvar>
<name>LOGM</name>
<cmt>Mariazell,AU</cmt>
</wpt>
<wpt lat="47.520100" lon="12.449700">
<ele>669.9504</ele>
<magvar>357.9</magvar>
<name>LOIJ</name>
<cmt>St. Johann in Tirol,AU</cmt>
</wpt>
<wpt lat="48.338300" lon="13.985000">
<ele>270.0528</ele>
<magvar>357.5</magvar>
<name>LOLE</name>
<cmt>Eferding,AU</cmt>
</wpt>
<wpt lat="48.515000" lon="14.408300">
<ele>682.1424</ele>
<magvar>357.4</magvar>
<name>LOLF</name>
<cmt>Freistadt,AU</cmt>
</wpt>
<wpt lat="48.140000" lon="14.338300">
<ele>358.14</ele>
<magvar>357.4</magvar>
<name>LOLH</name>
<cmt>HB Hofkirchen,AU</cmt>
</wpt>
<wpt lat="47.025300" lon="21.902500">
<ele>141.732</ele>
<magvar>355.8</magvar>
<name>LROD</name>
<cmt>Oradea Intl,ORADEA,RO</cmt>
</wpt>
<wpt lat="46.957500" lon="6.864720">
<ele>434.9496</ele>
<magvar>359.3</magvar>
<name>LSGN</name>
<cmt>Neuchatel,SZ</cmt>
</wpt>
<wpt lat="46.219600" lon="7.326760">
<ele>483.108</ele>
<magvar>359.1</magvar>
<name>LSGS</name>
<cmt>Sion,SION,SZ</cmt>
</wpt>
<wpt lat="46.843200" lon="6.915060">
<ele>446.532</ele>
<magvar>359.3</magvar>
<name>LSMP</name>
<cmt>Payerne,PAYERNE,SZ</cmt>
</wpt>
<wpt lat="47.690600" lon="8.526940">
<ele>462.9912</ele>
<magvar>358.9</magvar>
<name>LSPF</name>
<cmt>Schaffhausen,SZ</cmt>
</wpt>
<wpt lat="47.226700" lon="8.078060">
<ele>485.8512</ele>
<magvar>359.0</magvar>
<name>LSPN</name>
<cmt>Triengen,SZ</cmt>
</wpt>
<wpt lat="47.344400" lon="7.889440">
<magvar>359.0</magvar>
<name>LSPO</name>
<cmt>Olten,SZ</cmt>
</wpt>
<wpt lat="47.204700" lon="8.867500">
<ele>406.908</ele>
<magvar>358.8</magvar>
<name>LSPV</name>
<cmt>Wangen-Lachen,SZ</cmt>
</wpt>
<wpt lat="47.443600" lon="8.233610">
<ele>396.24</ele>
<magvar>358.9</magvar>
<name>LSZF</name>
<cmt>Birrfeld,SZ</cmt>
</wpt>
<wpt lat="47.508900" lon="7.950000">
<ele>544.9824</ele>
<magvar>359.0</magvar>
<name>LSZI</name>
<cmt>Fricktal-Schupfart,SZ</cmt>
</wpt>
<wpt lat="47.089200" lon="7.290000">
<ele>437.9976</ele>
<magvar>359.2</magvar>
<name>LSZP</name>
<cmt>Biel-Kappelen,SZ</cmt>
</wpt>
<wpt lat="47.508900" lon="9.262780">
<ele>505.968</ele>
<magvar>358.7</magvar>
<name>LSZV</name>
<cmt>Sitterdorf,SZ</cmt>
</wpt>
<wpt lat="47.171700" lon="9.039440">
<ele>416.052</ele>
<magvar>358.7</magvar>
<name>LSZX</name>
<cmt>Schanis,SZ</cmt>
</wpt>
<wpt lat="47.410600" lon="7.051670">
<ele>434.9496</ele>
<magvar>359.3</magvar>
<name>LSZY</name>
<cmt>Porrontruy,SZ</cmt>
</wpt>
<wpt lat="40.128100" lon="32.995100">
<ele>952.5</ele>
<magvar>355.2</magvar>
<name>LTAC</name>
<cmt>Esenboga,ANKARA,TU</cmt>
</wpt>
<wpt lat="36.573500" lon="36.154000">
<ele>7.62</ele>
<magvar>355.5</magvar>
<name>LTAK</name>
<cmt>Iskenderun,TU</cmt>
</wpt>
<wpt lat="38.353700" lon="38.253900">
<ele>919.2768</ele>
<magvar>355.1</magvar>
<name>LTAO</name>
<cmt>Tulga,TU</cmt>
</wpt>
<wpt lat="41.506400" lon="32.088600">
<ele>11.8872</ele>
<magvar>355.1</magvar>
<name>LTAS</name>
<cmt>Zonguldak Caycum,TU</cmt>
</wpt>
<wpt lat="38.771900" lon="34.534500">
<ele>944.88</ele>
<magvar>355.3</magvar>
<name>LTAZ</name>
<cmt>Kapadokya,NEVSEHIR,TU</cmt>
</wpt>
<wpt lat="40.318000" lon="27.977700">
<ele>51.816</ele>
<magvar>355.7</magvar>
<name>LTBG</name>
<cmt>Bandirma,TU</cmt>
</wpt>
<wpt lat="40.993000" lon="29.216500">
<ele>121.92</ele>
<magvar>355.5</magvar>
<name>LTBX</name>
<cmt>Samandira,TU</cmt>
</wpt>
<wpt lat="39.554600" lon="27.013800">
<ele>15.24</ele>
<magvar>355.9</magvar>
<name>LTFD</name>
<cmt>Balikesir Korfez,BALIKESIR,TU</cmt>
</wpt>
<wpt lat="46.927700" lon="28.931000">
<ele>121.6152</ele>
<magvar>354.5</magvar>
<name>LUKK</name>
<cmt>Chisinau Intl,CHISINAU,MD</cmt>
</wpt>
<wpt lat="30.765100" lon="20.191400">
<ele>15.24</ele>
<magvar>357.5</magvar>
<name>HL58</name>
<cmt>Agedabia,LY</cmt>
</wpt>
<wpt lat="30.870200" lon="20.075500">
<ele>4.8768</ele>
<magvar>357.5</magvar>
<name>HL62</name>
<cmt>Zuetina,LY</cmt>
</wpt>
<wpt lat="49.333900" lon="21.570300">
<ele>353.8728</ele>
<magvar>355.6</magvar>
<name>LZSK</name>
<cmt>Svidník,LO</cmt>
</wpt>
<wpt lat="42.839000" lon="19.862000">
<ele>697.0776</ele>
<magvar>356.6</magvar>
<name>LYBR</name>
<cmt>Berane,MJ</cmt>
</wpt>
<wpt lat="43.818300" lon="20.587200">
<ele>209.0928</ele>
<magvar>356.4</magvar>
<name>LYKV</name>
<cmt>Ladevci,RB</cmt>
</wpt>
<wpt lat="41.150700" lon="21.407900">
<ele>579.12</ele>
<magvar>356.5</magvar>
<name>LW68</name>
<cmt>Srpci,MK</cmt>
</wpt>
<wpt lat="2.600000" lon="102.917000">
<ele>48.768</ele>
<magvar>0.0</magvar>
<name>MY-GTK</name>
<cmt>Sungei Tekai,MY</cmt>
</wpt>
<wpt lat="60.020300" lon="11.379100">
<ele>149.0472</ele>
<magvar>358.1</magvar>
<name>NO-0001</name>
<cmt>Haga,NO</cmt>
</wpt>
<wpt lat="28.000000" lon="85.333000">
<magvar>0.0</magvar>
<name>NP-MWP</name>
<cmt>Mountain,NP</cmt>
</wpt>
<wpt lat="34.946100" lon="69.265000">
<ele>1491.996</ele>
<magvar>357.3</magvar>
<name>OAIX</name>
<cmt>Bagram,BAGRAM,AF</cmt>
</wpt>
<wpt lat="25.285300" lon="49.485200">
<ele>179.2224</ele>
<magvar>357.7</magvar>
<name>OEAH</name>
<cmt>Al Ahsa,AL AHSA,SA</cmt>
</wpt>
<wpt lat="25.911300" lon="49.591200">
<ele>69.7992</ele>
<magvar>357.6</magvar>
<name>OEBQ</name>
<cmt>Abqaiq,SA</cmt>
</wpt>
<wpt lat="34.596300" lon="135.603000">
<ele>11.8872</ele>
<magvar>7.0</magvar>
<name>RJOY</name>
<cmt>Yao,YAO,JA</cmt>
</wpt>
<wpt lat="29.626400" lon="43.490600">
<ele>449.2752</ele>
<magvar>356.5</magvar>
<name>OERF</name>
<cmt>Rafha Domestic,RAFHA,SA</cmt>
</wpt>
<wpt lat="25.151100" lon="49.328800">
<ele>231.3432</ele>
<magvar>357.7</magvar>
<name>OEUD</name>
<cmt>Udhailiyah,SA</cmt>
</wpt>
<wpt lat="26.198600" lon="36.476400">
<ele>20.1168</ele>
<magvar>356.7</magvar>
<name>OEWJ</name>
<cmt>Al Wajh Domestic,WEJH,SA</cmt>
</wpt>
<wpt lat="34.345900" lon="47.158100">
<ele>1312.7736</ele>
<magvar>355.9</magvar>
<name>OICC</name>
<cmt>Shahid Ashrafi Esfahani,KERMANSHAH,IR</cmt>
</wpt>
<wpt lat="32.567000" lon="51.691600">
<ele>1618.488</ele>
<magvar>356.5</magvar>
<name>OIFH</name>
<cmt>Shahid Vatan Pour Air Base,IR</cmt>
</wpt>
<wpt lat="36.168100" lon="57.595200">
<ele>917.448</ele>
<magvar>356.0</magvar>
<name>OIMS</name>
<cmt>Sabzevar National,IR</cmt>
</wpt>
<wpt lat="33.667800" lon="56.892700">
<ele>704.6976</ele>
<magvar>356.7</magvar>
<name>OIMT</name>
<cmt>Tabas,TABAS,IR</cmt>
</wpt>
<wpt lat="36.773700" lon="48.359400">
<ele>1640.4336</ele>
<magvar>355.4</magvar>
<name>OITZ</name>
<cmt>Zanjan,ZANJAN,IR</cmt>
</wpt>
<wpt lat="31.904900" lon="54.276500">
<ele>1235.6592</ele>
<magvar>356.9</magvar>
<name>OIYY</name>
<cmt>Yazd Shahid Sadooghi,YAZD,IR</cmt>
</wpt>
<wpt lat="24.284000" lon="52.580400">
<ele>7.62</ele>
<magvar>358.2</magvar>
<name>OM10</name>
<cmt>Yas Island,AE</cmt>
</wpt>
<wpt lat="37.866500" lon="127.175000">
<ele>99.9744</ele>
<magvar>8.0</magvar>
<name>RKRO</name>
<cmt>G 217,KS</cmt>
</wpt>
<wpt lat="24.428300" lon="54.458100">
<ele>4.8768</ele>
<magvar>358.4</magvar>
<name>OMAD</name>
<cmt>Bateen,AE</cmt>
</wpt>
<wpt lat="31.365000" lon="72.994800">
<ele>180.1368</ele>
<magvar>358.5</magvar>
<name>OPFA</name>
<cmt>Faisalabad Intl,FAISALABAD,PK</cmt>
</wpt>
<wpt lat="31.521600" lon="74.403600">
<ele>217.0176</ele>
<magvar>358.6</magvar>
<name>OPLA</name>
<cmt>Alama Iqbal Intl,LAHORE,PK</cmt>
</wpt>
<wpt lat="34.081100" lon="71.972600">
<ele>320.04</ele>
<magvar>357.7</magvar>
<name>OPRS</name>
<cmt>Risalpur,PK</cmt>
</wpt>
<wpt lat="33.338100" lon="43.597100">
<ele>83.82</ele>
<magvar>355.9</magvar>
<name>ORAT</name>
<cmt>Al Taqaddum Air Base,IZ</cmt>
</wpt>
<wpt lat="33.262500" lon="44.234600">
<ele>34.7472</ele>
<magvar>356.0</magvar>
<name>ORBI</name>
<cmt>Baghdad Intl,BAGHDAD,IZ</cmt>
</wpt>
<wpt lat="36.305800" lon="43.147400">
<ele>219.1512</ele>
<magvar>355.4</magvar>
<name>ORBM</name>
<cmt>Mosul Intl,IZ</cmt>
</wpt>
<wpt lat="30.549100" lon="47.662100">
<ele>3.3528</ele>
<magvar>356.6</magvar>
<name>ORMM</name>
<cmt>Basrah Intl,BASRAH,IZ</cmt>
</wpt>
<wpt lat="25.117300" lon="51.315000">
<ele>39.624</ele>
<magvar>357.9</magvar>
<name>OTBH</name>
<cmt>Al Udeid Air Base,QA</cmt>
</wpt>
<wpt lat="18.719300" lon="50.836900">
<ele>276.7584</ele>
<magvar>358.7</magvar>
<name>OYBA</name>
<cmt>Al Badie,YM</cmt>
</wpt>
<wpt lat="16.191700" lon="52.175000">
<ele>40.8432</ele>
<magvar>359.3</magvar>
<name>OYGD</name>
<cmt>Al Ghaidah Intl,YM</cmt>
</wpt>
<wpt lat="14.662600" lon="49.375000">
<ele>16.4592</ele>
<magvar>359.0</magvar>
<name>OYRN</name>
<cmt>Mukalla Intl,MUKALLA,YM</cmt>
</wpt>
<wpt lat="15.300000" lon="43.967000">
<ele>198.4248</ele>
<magvar>358.1</magvar>
<name>OYAB</name>
<cmt>Abbse,YM</cmt>
</wpt>
<wpt lat="27.200500" lon="69.153800">
<ele>50.9016</ele>
<magvar>359.2</magvar>
<name>OP10</name>
<cmt>Thar,PK</cmt>
</wpt>
<wpt lat="30.340000" lon="70.556700">
<ele>114.9096</ele>
<magvar>358.6</magvar>
<name>OP14</name>
<cmt>Belab,PK</cmt>
</wpt>
<wpt lat="24.787200" lon="68.557200">
<ele>4.8768</ele>
<magvar>359.6</magvar>
<name>OP16</name>
<cmt>Khorewah,PK</cmt>
</wpt>
<wpt lat="26.198100" lon="67.503700">
<ele>128.016</ele>
<magvar>359.3</magvar>
<name>OP1A</name>
<cmt>Jam Nida Northwest,PK</cmt>
</wpt>
<wpt lat="32.878500" lon="73.605300">
<ele>243.84</ele>
<magvar>358.2</magvar>
<name>OP25</name>
<cmt>Gurha Salim,PK</cmt>
</wpt>
<wpt lat="28.470600" lon="69.599100">
<ele>79.248</ele>
<magvar>358.9</magvar>
<name>OP31</name>
<cmt>Kashmor,PK</cmt>
</wpt>
<wpt lat="23.461800" lon="120.393000">
<ele>25.908</ele>
<magvar>3.4</magvar>
<name>RCKU</name>
<cmt>Chiayi,CHIAYI,TW</cmt>
</wpt>
<wpt lat="36.181100" lon="140.415000">
<ele>32.004</ele>
<magvar>6.9</magvar>
<name>RJAH</name>
<cmt>Hyakuri,HYAKURI,JA</cmt>
</wpt>
<wpt lat="33.662200" lon="135.364000">
<ele>90.8304</ele>
<magvar>6.7</magvar>
<name>RJBD</name>
<cmt>Nanki Shirahama,NANKI-SHIRAHAMA,JA</cmt>
</wpt>
<wpt lat="34.366900" lon="132.414000">
<ele>4.572</ele>
<magvar>7.1</magvar>
<name>RJBH</name>
<cmt>Hiroshimanishi,HIROSHIMANISHI,JA</cmt>
</wpt>
<wpt lat="43.577500" lon="144.960000">
<ele>71.3232</ele>
<magvar>8.5</magvar>
<name>RJCN</name>
<cmt>Nakashibetsu,NAKASHIBETSU,JA</cmt>
</wpt>
<wpt lat="43.116100" lon="141.380000">
<ele>7.62</ele>
<magvar>9.1</magvar>
<name>RJCO</name>
<cmt>Okadama,SAPPORO,JA</cmt>
</wpt>
<wpt lat="31.877200" lon="131.449000">
<ele>6.096</ele>
<magvar>6.3</magvar>
<name>RJFM</name>
<cmt>Miyazaki,MIYAZAKI,JA</cmt>
</wpt>
<wpt lat="34.858400" lon="136.805000">
<ele>4.572</ele>
<magvar>7.0</magvar>
<name>RJGG</name>
<cmt>Chubu Centrair Intl,NAGOYA,JA</cmt>
</wpt>
<wpt lat="27.425500" lon="128.701000">
<ele>30.7848</ele>
<magvar>4.9</magvar>
<name>RJKB</name>
<cmt>Okierabu,OKIERABU I,JA</cmt>
</wpt>
<wpt lat="35.255000" lon="136.924000">
<ele>15.8496</ele>
<magvar>7.1</magvar>
<name>RJNA</name>
<cmt>Nagoya,NAGOYA,JA</cmt>
</wpt>
<wpt lat="34.132800" lon="134.607000">
<ele>7.9248</ele>
<magvar>6.9</magvar>
<name>RJOS</name>
<cmt>Tokushima,TOKUSHIMA,JA</cmt>
</wpt>
<wpt lat="37.227400" lon="140.431000">
<ele>372.1608</ele>
<magvar>7.3</magvar>
<name>RJSF</name>
<cmt>Fukushima,FUKUSHIMA,JA</cmt>
</wpt>
<wpt lat="37.955900" lon="139.121000">
<ele>8.8392</ele>
<magvar>7.7</magvar>
<name>RJSN</name>
<cmt>Niigata,NIIGATA,JA</cmt>
</wpt>
<wpt lat="38.812200" lon="139.787000">
<ele>26.2128</ele>
<magvar>7.9</magvar>
<name>RJSY</name>
<cmt>Shonai,SHONAI,JA</cmt>
</wpt>
<wpt lat="34.987100" lon="139.829000">
<ele>3.048</ele>
<magvar>6.6</magvar>
<name>RJTE</name>
<cmt>Tateyama,JA</cmt>
</wpt>
<wpt lat="33.115000" lon="139.786000">
<ele>92.3544</ele>
<magvar>6.0</magvar>
<name>RJTH</name>
<cmt>Hachijojima,HACHIJOJIMA,JA</cmt>
</wpt>
<wpt lat="35.398300" lon="139.910000">
<ele>3.048</ele>
<magvar>6.7</magvar>
<name>RJTK</name>
<cmt>Kisarazu,KISARAZU,JA</cmt>
</wpt>
<wpt lat="34.782000" lon="139.360000">
<ele>39.624</ele>
<magvar>6.6</magvar>
<name>RJTO</name>
<cmt>Oshima,OSHIMA,JA</cmt>
</wpt>
<wpt lat="35.878400" lon="127.120000">
<ele>29.2608</ele>
<magvar>7.4</magvar>
<name>RKJU</name>
<cmt>Jeon Ju,KS</cmt>
</wpt>
<wpt lat="37.753600" lon="128.944000">
<ele>10.668</ele>
<magvar>8.1</magvar>
<name>RKNN</name>
<cmt>Gangneung,GANGNEUNG,KS</cmt>
</wpt>
<wpt lat="38.061300" lon="128.669000">
<ele>73.4568</ele>
<magvar>8.2</magvar>
<name>RKNY</name>
<cmt>Yangyang Intl,YANGYANG,KS</cmt>
</wpt>
<wpt lat="35.593500" lon="129.352000">
<ele>13.716</ele>
<magvar>7.5</magvar>
<name>RKPU</name>
<cmt>Ulsan,ULSAN,KS</cmt>
</wpt>
<wpt lat="37.090600" lon="127.030000">
<ele>11.5824</ele>
<magvar>7.8</magvar>
<name>RKSO</name>
<cmt>Osan Air Base,OSAN,KS</cmt>
</wpt>
<wpt lat="35.894100" lon="128.659000">
<ele>35.3568</ele>
<magvar>7.5</magvar>
<name>RKTN</name>
<cmt>Daegu Air Base,DAEGU,KS</cmt>
</wpt>
<wpt lat="26.355600" lon="127.768000">
<ele>43.5864</ele>
<magvar>4.6</magvar>
<name>RODN</name>
<cmt>Kadena Air Base,OKINAWA I,JA</cmt>
</wpt>
<wpt lat="26.274300" lon="127.756000">
<ele>75.2856</ele>
<magvar>4.6</magvar>
<name>ROTM</name>
<cmt>Futenma Marine Corps,OKINAWA I,JA</cmt>
</wpt>
<wpt lat="60.503300" lon="43.601700">
<ele>99.9744</ele>
<magvar>346.0</magvar>
<name>RU-0057</name>
<cmt>Tarnogskiy Gorodok,RS</cmt>
</wpt>
<wpt lat="20.475900" lon="44.757500">
<ele>678.18</ele>
<magvar>357.7</magvar>
<name>OE46</name>
<cmt>Al Lidem,SA</cmt>
</wpt>
<wpt lat="26.941600" lon="49.704100">
<ele>3.048</ele>
<magvar>357.4</magvar>
<name>OE50</name>
<cmt>King Abdulaziz Naval Base,SA</cmt>
</wpt>
<wpt lat="26.611600" lon="45.322000">
<ele>579.12</ele>
<magvar>357.0</magvar>
<name>OE52</name>
<cmt>Al Artawiyah South,SA</cmt>
</wpt>
<wpt lat="58.898600" lon="17.498500">
<ele>9.144</ele>
<magvar>355.6</magvar>
<name>SE-0001</name>
<cmt>Trosa Troslanda,SW</cmt>
</wpt>
<wpt lat="34.569100" lon="36.572800">
<ele>538.8864</ele>
<magvar>355.8</magvar>
<name>OS70</name>
<cmt>Al Qusayr Air Base,SY</cmt>
</wpt>
<wpt lat="37.640400" lon="69.646600">
<ele>494.9952</ele>
<magvar>356.5</magvar>
<name>UT1B</name>
<cmt>Moskovskiy Pyandzh,TI</cmt>
</wpt>
<wpt lat="38.512300" lon="68.672500">
<ele>725.1192</ele>
<magvar>356.1</magvar>
<name>UT45</name>
<cmt>Gissar,TI</cmt>
</wpt>
<wpt lat="38.012000" lon="58.195000">
<ele>280.416</ele>
<magvar>355.5</magvar>
<name>UT1G</name>
<cmt>Ashkhabad Bezmein,TX</cmt>
</wpt>
<wpt lat="39.480600" lon="54.366000">
<ele>1.524</ele>
<magvar>354.8</magvar>
<name>UT1H</name>
<cmt>Nebit Dag,TX</cmt>
</wpt>
<wpt lat="40.609000" lon="72.793300">
<ele>892.1496</ele>
<magvar>355.8</magvar>
<name>UAFO</name>
<cmt>Osh,OSH,KG</cmt>
</wpt>
<wpt lat="51.150800" lon="51.543100">
<ele>38.1</ele>
<magvar>349.9</magvar>
<name>UARR</name>
<cmt>Uralsk,URALSK,KZ</cmt>
</wpt>
<wpt lat="50.245800" lon="57.206700">
<ele>224.9424</ele>
<magvar>350.1</magvar>
<name>UATT</name>
<cmt>Aktyubinsk,AKTYUBINSK,KZ</cmt>
</wpt>
<wpt lat="53.206900" lon="63.550300">
<ele>181.356</ele>
<magvar>348.5</magvar>
<name>UAUU</name>
<cmt>Kostanay West,KOSTANAY,KZ</cmt>
</wpt>
<wpt lat="40.750400" lon="43.859300">
<ele>1524</ele>
<magvar>354.4</magvar>
<name>UDSG</name>
<cmt>Gyumri Shirak,GYUMRI,AM</cmt>
</wpt>
<wpt lat="42.508100" lon="78.407800">
<ele>1702.0032</ele>
<magvar>355.9</magvar>
<name>UAFP</name>
<cmt>Karakol,KG</cmt>
</wpt>
<wpt lat="41.610300" lon="41.599700">
<ele>32.004</ele>
<magvar>354.2</magvar>
<name>UGSB</name>
<cmt>Batumi,BATUMI,GG</cmt>
</wpt>
<wpt lat="41.669200" lon="44.954700">
<ele>494.9952</ele>
<magvar>354.1</magvar>
<name>UGTB</name>
<cmt>Tbilisi,TBILISI,GG</cmt>
</wpt>
<wpt lat="48.357200" lon="35.100600">
<ele>146.6088</ele>
<magvar>353.2</magvar>
<name>UKDD</name>
<cmt>Dnipropetrovsk Intl,DNIPROPETROVS'K,UP</cmt>
</wpt>
<wpt lat="50.607100" lon="26.141600">
<ele>230.124</ele>
<magvar>354.4</magvar>
<name>UKLR</name>
<cmt>Rivne Intl,RIVNE,UP</cmt>
</wpt>
<wpt lat="57.783900" lon="28.395600">
<ele>46.9392</ele>
<magvar>352.0</magvar>
<name>ULOO</name>
<cmt>Pskov,PSKOV,RS</cmt>
</wpt>
<wpt lat="52.527000" lon="31.016700">
<ele>143.8656</ele>
<magvar>352.8</magvar>
<name>UMGG</name>
<cmt>Gomel,GOMEL,BO</cmt>
</wpt>
<wpt lat="57.961400" lon="31.384400">
<ele>15.8496</ele>
<magvar>350.9</magvar>
<name>ULNR</name>
<cmt>Staraya Russa,RS</cmt>
</wpt>
<wpt lat="55.091700" lon="82.906700">
<ele>170.0784</ele>
<magvar>351.6</magvar>
<name>UNCC</name>
<cmt>Novosibirsk North,RS</cmt>
</wpt>
<wpt lat="43.512900" lon="43.636600">
<ele>445.3128</ele>
<magvar>353.6</magvar>
<name>URMN</name>
<cmt>Nalchik,NALCHIK,RS</cmt>
</wpt>
<wpt lat="46.373900" lon="44.330900">
<ele>152.7048</ele>
<magvar>352.6</magvar>
<name>URWI</name>
<cmt>Elista,ELISTA,RS</cmt>
</wpt>
<wpt lat="43.298100" lon="45.784100">
<ele>167.0304</ele>
<magvar>353.5</magvar>
<name>URMG</name>
<cmt>Grozny,RS</cmt>
</wpt>
<wpt lat="12.274600" lon="102.319000">
<ele>32.004</ele>
<magvar>0.6</magvar>
<name>VTBO</name>
<cmt>Trat,TH</cmt>
</wpt>
<wpt lat="41.584300" lon="60.641700">
<ele>97.536</ele>
<magvar>354.3</magvar>
<name>UTNU</name>
<cmt>Urgench,URGENCH,UZ</cmt>
</wpt>
<wpt lat="39.775000" lon="64.483300">
<ele>228.9048</ele>
<magvar>355.3</magvar>
<name>UTSB</name>
<cmt>Bukhara,BUKHARA,UZ</cmt>
</wpt>
<wpt lat="38.833600" lon="65.921500">
<ele>416.052</ele>
<magvar>355.7</magvar>
<name>UTSL</name>
<cmt>Karshi Khanabad,UZ</cmt>
</wpt>
<wpt lat="39.700500" lon="66.983800">
<ele>677.8752</ele>
<magvar>355.5</magvar>
<name>UTSS</name>
<cmt>Samarkand,SAMARKAND,UZ</cmt>
</wpt>
<wpt lat="57.560700" lon="40.157400">
<ele>87.4776</ele>
<magvar>348.6</magvar>
<name>UUDL</name>
<cmt>Tunoshna,YAROSLAVL,RS</cmt>
</wpt>
<wpt lat="56.824700" lon="35.757700">
<ele>142.9512</ele>
<magvar>350.1</magvar>
<name>UUEM</name>
<cmt>Migalovo Air Base,RS</cmt>
</wpt>
<wpt lat="55.591500" lon="37.261500">
<ele>208.788</ele>
<magvar>350.2</magvar>
<name>UUWW</name>
<cmt>Vnukovo Intl,MOSCOW,RS</cmt>
</wpt>
<wpt lat="56.090300" lon="47.347300">
<ele>170.0784</ele>
<magvar>347.7</magvar>
<name>UWKS</name>
<cmt>Cheboksary,CHEBOKSARY,RS</cmt>
</wpt>
<wpt lat="54.557500" lon="55.874400">
<ele>136.8552</ele>
<magvar>347.6</magvar>
<name>UWUU</name>
<cmt>Ufa Intl,UFA,RS</cmt>
</wpt>
<wpt lat="39.137800" lon="65.165300">
<ele>319.1256</ele>
<magvar>355.5</magvar>
<name>UT73</name>
<cmt>Maymanak,UZ</cmt>
</wpt>
<wpt lat="19.862700" lon="75.398100">
<ele>582.4728</ele>
<magvar>0.7</magvar>
<name>VAAU</name>
<cmt>Aurangabad,AURANGABAD,IN</cmt>
</wpt>
<wpt lat="23.112700" lon="70.100300">
<ele>29.2608</ele>
<magvar>0.0</magvar>
<name>VAKE</name>
<cmt>Kandla,KANDLA,IN</cmt>
</wpt>
<wpt lat="16.664700" lon="74.289400">
<ele>608.3808</ele>
<magvar>1.2</magvar>
<name>VAKP</name>
<cmt>Kolhapur,IN</cmt>
</wpt>
<wpt lat="17.628000" lon="75.934800">
<ele>482.8032</ele>
<magvar>1.0</magvar>
<name>VASL</name>
<cmt>Sholapur,IN</cmt>
</wpt>
<wpt lat="21.114100" lon="72.741800">
<ele>4.8768</ele>
<magvar>0.4</magvar>
<name>VASU</name>
<cmt>Surat,IN</cmt>
</wpt>
<wpt lat="24.617700" lon="73.896100">
<ele>513.2832</ele>
<magvar>359.9</magvar>
<name>VAUD</name>
<cmt>Udaipur,UDAIPUR,IN</cmt>
</wpt>
<wpt lat="7.180760" lon="79.884100">
<ele>9.144</ele>
<magvar>2.6</magvar>
<name>VCBI</name>
<cmt>Bandaranaike Intl Colombo,KATUNAYAKE,CE</cmt>
</wpt>
<wpt lat="13.095600" lon="103.224000">
<ele>17.9832</ele>
<magvar>0.6</magvar>
<name>VDBG</name>
<cmt>Battambang,CB</cmt>
</wpt>
<wpt lat="23.746600" lon="92.802800">
<ele>305.1048</ele>
<magvar>0.7</magvar>
<name>VEAZ</name>
<cmt>Aizawl,IN</cmt>
</wpt>
<wpt lat="22.339500" lon="87.214500">
<ele>60.96</ele>
<magvar>0.7</magvar>
<name>VEDX</name>
<cmt>Kalaikunda Air Force Station,IN</cmt>
</wpt>
<wpt lat="21.913500" lon="84.050400">
<ele>228.9048</ele>
<magvar>0.6</magvar>
<name>VEJH</name>
<cmt>Jharsuguda,IN</cmt>
</wpt>
<wpt lat="25.452400" lon="82.859300">
<ele>81.0768</ele>
<magvar>0.1</magvar>
<name>VIBN</name>
<cmt>Varanasi,VARANASI,IN</cmt>
</wpt>
<wpt lat="30.748500" lon="75.629800">
<ele>240.792</ele>
<magvar>358.8</magvar>
<name>VIHX</name>
<cmt>Halwara Air Force Station,IN</cmt>
</wpt>
<wpt lat="26.760600" lon="80.889300">
<ele>124.968</ele>
<magvar>359.9</magvar>
<name>VILK</name>
<cmt>Lucknow,LUCKNOW,IN</cmt>
</wpt>
<wpt lat="32.233800" lon="75.634600">
<ele>309.9816</ele>
<magvar>358.5</magvar>
<name>VIPK</name>
<cmt>Pathankot Air Force Station,IN</cmt>
</wpt>
<wpt lat="19.897300" lon="102.161000">
<ele>291.084</ele>
<magvar>1.1</magvar>
<name>VLLB</name>
<cmt>Luang Phabang Intl,LUANG PHABANG,LA</cmt>
</wpt>
<wpt lat="19.902800" lon="105.470000">
<ele>114.9096</ele>
<magvar>1.3</magvar>
<name>VV01</name>
<cmt>Bai Thuong,VM</cmt>
</wpt>
<wpt lat="10.823700" lon="72.176000">
<ele>4.2672</ele>
<magvar>2.1</magvar>
<name>VOAT</name>
<cmt>Agatti,IN</cmt>
</wpt>
<wpt lat="15.162800" lon="76.882800">
<ele>9.144</ele>
<magvar>1.4</magvar>
<name>VOBI</name>
<cmt>Bellary,IN</cmt>
</wpt>
<wpt lat="12.961300" lon="74.890100">
<ele>102.7176</ele>
<magvar>1.8</magvar>
<name>VOML</name>
<cmt>Mangalore,MANGALORE,IN</cmt>
</wpt>
<wpt lat="12.990000" lon="80.169300">
<ele>15.8496</ele>
<magvar>1.7</magvar>
<name>VOMM</name>
<cmt>Chennai Intl,CHENNAI,IN</cmt>
</wpt>
<wpt lat="17.110400" lon="81.818200">
<ele>46.0248</ele>
<magvar>1.2</magvar>
<name>VORY</name>
<cmt>Rajahmundry,IN</cmt>
</wpt>
<wpt lat="16.699900" lon="98.545100">
<ele>210.312</ele>
<magvar>0.9</magvar>
<name>VTPM</name>
<cmt>Mae Sot,TAK,TH</cmt>
</wpt>
<wpt lat="16.896000" lon="99.253300">
<ele>145.6944</ele>
<magvar>0.9</magvar>
<name>VTPT</name>
<cmt>Tak,TAK,TH</cmt>
</wpt>
<wpt lat="6.785460" lon="101.154000">
<ele>2.4384</ele>
<magvar>0.4</magvar>
<name>VTSK</name>
<cmt>Pattani,TH</cmt>
</wpt>
<wpt lat="7.508740" lon="99.616600">
<ele>20.4216</ele>
<magvar>0.5</magvar>
<name>VTST</name>
<cmt>Trang,TRANG,TH</cmt>
</wpt>
<wpt lat="17.195100" lon="104.119000">
<ele>161.2392</ele>
<magvar>1.0</magvar>
<name>VTUI</name>
<cmt>Sakon Nakhon,SAKON NAKHON,TH</cmt>
</wpt>
<wpt lat="16.116800" lon="103.774000">
<ele>137.4648</ele>
<magvar>0.9</magvar>
<name>VTUV</name>
<cmt>Roi Et,ROI ET,TH</cmt>
</wpt>
<wpt lat="10.227000" lon="103.967000">
<ele>7.0104</ele>
<magvar>0.4</magvar>
<name>VVPQ</name>
<cmt>Phu Quoc,VM</cmt>
</wpt>
<wpt lat="10.049300" lon="98.538000">
<ele>54.864</ele>
<magvar>0.7</magvar>
<name>VYKT</name>
<cmt>Kawthoung,BM</cmt>
</wpt>
<wpt lat="20.940400" lon="94.822600">
<ele>53.34</ele>
<magvar>0.9</magvar>
<name>VYLY</name>
<cmt>Lanywa,BM</cmt>
</wpt>
<wpt lat="21.702200" lon="95.977900">
<ele>91.44</ele>
<magvar>0.9</magvar>
<name>VYMD</name>
<cmt>Mandalay Intl,MANDALAY,BM</cmt>
</wpt>
<wpt lat="16.815200" lon="94.779900">
<ele>6.096</ele>
<magvar>1.0</magvar>
<name>VYPN</name>
<cmt>Pathein,BM</cmt>
</wpt>
<wpt lat="20.132700" lon="92.872600">
<ele>8.2296</ele>
<magvar>0.9</magvar>
<name>VYSW</name>
<cmt>Sittwe,BM</cmt>
</wpt>
<wpt lat="19.031300" lon="96.401200">
<ele>48.768</ele>
<magvar>0.9</magvar>
<name>VYTO</name>
<cmt>Taungoo,BM</cmt>
</wpt>
<wpt lat="3.558060" lon="98.671700">
<ele>34.7472</ele>
<magvar>0.6</magvar>
<name>WIMM</name>
<cmt>Polonia Intl,MEDAN,ID</cmt>
</wpt>
<wpt lat="2.818180" lon="104.160000">
<ele>4.572</ele>
<magvar>359.9</magvar>
<name>WMBT</name>
<cmt>Pulau Tioman,MY</cmt>
</wpt>
<wpt lat="4.537220" lon="103.427000">
<ele>5.4864</ele>
<magvar>0.0</magvar>
<name>WMKE</name>
<cmt>Kerteh,KERTEH,MY</cmt>
</wpt>
<wpt lat="23.392400" lon="113.299000">
<ele>15.24</ele>
<magvar>2.6</magvar>
<name>ZGGG</name>
<cmt>Guangzhou Baiyun Intl,GUANGZHOU,CH</cmt>
</wpt>
<wpt lat="25.218100" lon="110.039000">
<ele>173.736</ele>
<magvar>2.4</magvar>
<name>ZGKL</name>
<cmt>Guilin Liangjiang Intl,GUILIN,CH</cmt>
</wpt>
<wpt lat="36.515200" lon="103.620000">
<ele>1947.0624</ele>
<magvar>2.4</magvar>
<name>ZLLL</name>
<cmt>Zhongchuan,LANZHOU,CH</cmt>
</wpt>
<wpt lat="30.320300" lon="109.485000">
<magvar>3.1</magvar>
<name>ZHES</name>
<cmt>Enshi,CH</cmt>
</wpt>
<wpt lat="52.026300" lon="113.306000">
<ele>692.5056</ele>
<magvar>8.1</magvar>
<name>UIAA</name>
<cmt>Chita-Kadala,CHITA,RS</cmt>
</wpt>
<wpt lat="50.425400" lon="127.412000">
<ele>194.4624</ele>
<magvar>11.9</magvar>
<name>UHBB</name>
<cmt>Ignatyevo,BLAGOVESHCHENSK,RS</cmt>
</wpt>
<wpt lat="49.205000" lon="119.825000">
<ele>661.1112</ele>
<magvar>9.9</magvar>
<name>ZBLA</name>
<cmt>Dongshan,HAILAR,CH</cmt>
</wpt>
<wpt lat="49.663300" lon="100.099000">
<ele>1302.1056</ele>
<magvar>1.3</magvar>
<name>ZMMN</name>
<cmt>Muren,MG</cmt>
</wpt>
<wpt lat="36.266100" lon="120.374000">
<ele>10.0584</ele>
<magvar>6.6</magvar>
<name>ZSQD</name>
<cmt>Liuting,QINGDAO,CH</cmt>
</wpt>
<wpt lat="41.312700" lon="69.391400">
<ele>479.7552</ele>
<magvar>355.1</magvar>
<name>UTTP</name>
<cmt>Tashkent East,UZ</cmt>
</wpt>
<wpt lat="40.358800" lon="71.745000">
<ele>603.504</ele>
<magvar>355.7</magvar>
<name>UTKF</name>
<cmt>Fergana,UZ</cmt>
</wpt>
<wpt lat="53.329100" lon="69.594600">
<ele>274.32</ele>
<magvar>349.0</magvar>
<name>UACK</name>
<cmt>Kokshetau,KZ</cmt>
</wpt>
<wpt lat="32.452900" lon="23.118600">
<ele>10.0584</ele>
<magvar>357.1</magvar>
<name>LY-HL68</name>
<cmt>Al Bumbah North Air Base,LY</cmt>
</wpt>
<wpt lat="29.906200" lon="35.066700">
<ele>91.44</ele>
<magvar>356.3</magvar>
<name>LLYT</name>
<cmt>Yotvata,IS</cmt>
</wpt>
<wpt lat="28.322400" lon="19.930000">
<ele>148.7424</ele>
<magvar>357.7</magvar>
<name>HLWA</name>
<cmt>Warehouse 59A,LY</cmt>
</wpt>
<wpt lat="30.579000" lon="31.129200">
<ele>10.0584</ele>
<magvar>356.5</magvar>
<name>EG-HE42</name>
<cmt>Quwaysina,EG</cmt>
</wpt>
<wpt lat="31.466600" lon="25.878000">
<ele>97.536</ele>
<magvar>356.8</magvar>
<name>EG-HE40</name>
<cmt>Sidi Barrani,EG</cmt>
</wpt>
<wpt lat="24.415800" lon="32.955800">
<ele>99.06</ele>
<magvar>356.9</magvar>
<name>EG-HE23</name>
<cmt>Daraw,EG</cmt>
</wpt>
<wpt lat="31.107500" lon="25.452100">
<ele>204.216</ele>
<magvar>356.9</magvar>
<name>EG-HE18</name>
<cmt>Habata,EG</cmt>
</wpt>
<wpt lat="30.330300" lon="31.441500">
<ele>35.052</ele>
<magvar>356.5</magvar>
<name>EG-HE12</name>
<cmt>Inshas,EG</cmt>
</wpt>
<wpt lat="42.572800" lon="21.035800">
<ele>545.2872</ele>
<magvar>356.5</magvar>
<name>KYPR</name>
<cmt>Priština Intl,PRISTINA,KV</cmt>
</wpt>
<wpt lat="50.033300" lon="136.300000">
<ele>49.9872</ele>
<magvar>12.0</magvar>
<name>RU-6088</name>
<cmt>Mengon Air Base,RS</cmt>
</wpt>
<wpt lat="49.273300" lon="142.928000">
<ele>17.9832</ele>
<magvar>10.7</magvar>
<name>RU-0081</name>
<cmt>Leonidovo Air Base,RS</cmt>
</wpt>
<wpt lat="65.736700" lon="150.705000">
<ele>55.1688</ele>
<magvar>11.8</magvar>
<name>UESU</name>
<cmt>Zyryanka,RS</cmt>
</wpt>
<wpt lat="54.293300" lon="158.152000">
<ele>149.0472</ele>
<magvar>6.5</magvar>
<name>RU-8499</name>
<cmt>Sharomy Air Base,RS</cmt>
</wpt>
<wpt lat="56.238600" lon="162.688000">
<ele>60.96</ele>
<magvar>4.6</magvar>
<name>UHPK</name>
<cmt>Ust-Kamchatsk,RS</cmt>
</wpt>
<wpt lat="13.417000" lon="121.200000">
<ele>3.3528</ele>
<magvar>1.2</magvar>
<name>RPUK</name>
<cmt>Calapan,RP</cmt>
</wpt>
<wpt lat="14.893100" lon="120.852000">
<ele>6.096</ele>
<magvar>1.5</magvar>
<name>RPUX</name>
<cmt>Plaridel,RP</cmt>
</wpt>
<wpt lat="13.900200" lon="121.744000">
<ele>3.9624</ele>
<magvar>1.3</magvar>
<name>RP12</name>
<cmt>Pagbilao Grande Island,RP</cmt>
</wpt>
<wpt lat="13.157100" lon="123.746000">
<ele>20.1168</ele>
<magvar>1.2</magvar>
<name>RPLP</name>
<cmt>Legazpi City Intl,RP</cmt>
</wpt>
<wpt lat="13.361000" lon="121.826000">
<ele>9.7536</ele>
<magvar>1.2</magvar>
<name>RPUW</name>
<cmt>Marinduque,RP</cmt>
</wpt>
<wpt lat="16.619200" lon="121.252000">
<ele>249.936</ele>
<magvar>1.9</magvar>
<name>RPUZ</name>
<cmt>Bagabag,RP</cmt>
</wpt>
<wpt lat="22.149600" lon="113.592000">
<ele>6.096</ele>
<magvar>2.4</magvar>
<name>VMMC</name>
<cmt>Macau Intl,MACAO,MC</cmt>
</wpt>
<wpt lat="18.178100" lon="120.532000">
<ele>7.62</ele>
<magvar>2.2</magvar>
<name>RPLI</name>
<cmt>Laoag Intl,LAOAG,RP</cmt>
</wpt>
<wpt lat="17.638300" lon="121.731000">
<ele>21.336</ele>
<magvar>2.1</magvar>
<name>RPUT</name>
<cmt>Tuguegarao,RP</cmt>
</wpt>
<wpt lat="13.576400" lon="124.206000">
<ele>36.8808</ele>
<magvar>1.3</magvar>
<name>RPUV</name>
<cmt>Virac,RP</cmt>
</wpt>
<wpt lat="4.410390" lon="117.787000">
<ele>53.34</ele>
<magvar>359.7</magvar>
<name>MY-0015</name>
<cmt>Hunter (Morotai),MY</cmt>
</wpt>
<wpt lat="5.406110" lon="118.396000">
<ele>18.288</ele>
<magvar>359.8</magvar>
<name>MY-0016</name>
<cmt>Jeroco,MY</cmt>
</wpt>
<wpt lat="5.357490" lon="116.162000">
<ele>315.7728</ele>
<magvar>359.8</magvar>
<name>WBKG</name>
<cmt>Keningau,MY</cmt>
</wpt>
<wpt lat="1.032820" lon="116.911000">
<ele>41.148</ele>
<magvar>359.2</magvar>
<name>WRLW</name>
<cmt>Muara Wahau,ID</cmt>
</wpt>
<wpt lat="2.617000" lon="114.133000">
<ele>106.68</ele>
<magvar>359.4</magvar>
<name>WBGE</name>
<cmt>Long Geng,MY</cmt>
</wpt>
<wpt lat="3.300000" lon="114.783000">
<ele>88.0872</ele>
<magvar>359.5</magvar>
<name>WBGL</name>
<cmt>Long Akah,MY</cmt>
</wpt>
<wpt lat="4.974720" lon="116.472000">
<ele>335.28</ele>
<magvar>359.7</magvar>
<name>MY-0024</name>
<cmt>Pandewan,MY</cmt>
</wpt>
<wpt lat="5.141390" lon="116.308000">
<magvar>359.8</magvar>
<name>MY-0026</name>
<cmt>Sook,MY</cmt>
</wpt>
<wpt lat="6.053670" lon="121.011000">
<ele>35.9664</ele>
<magvar>359.9</magvar>
<name>RPMJ</name>
<cmt>Jolo,RP</cmt>
</wpt>
<wpt lat="7.785560" lon="122.602000">
<magvar>0.1</magvar>
<name>RPMV</name>
<cmt>Ipil,RP</cmt>
</wpt>
<wpt lat="5.628610" lon="117.126000">
<ele>104.5464</ele>
<magvar>359.8</magvar>
<name>WBKE</name>
<cmt>Telupid,MY</cmt>
</wpt>
<wpt lat="10.766000" lon="121.933000">
<ele>7.0104</ele>
<magvar>0.7</magvar>
<name>RPVS</name>
<cmt>Antique,RP</cmt>
</wpt>
<wpt lat="10.912100" lon="124.437000">
<ele>4.8768</ele>
<magvar>0.7</magvar>
<name>RP15</name>
<cmt>Pasar,RP</cmt>
</wpt>
<wpt lat="10.307500" lon="123.979000">
<ele>9.4488</ele>
<magvar>0.6</magvar>
<name>RPVM</name>
<cmt>Mactan Cebu Intl,LAPU-LAPU,RP</cmt>
</wpt>
<wpt lat="7.617220" lon="124.059000">
<ele>8.2296</ele>
<magvar>0.0</magvar>
<name>RPMM</name>
<cmt>Malabang,RP</cmt>
</wpt>
<wpt lat="6.366820" lon="124.751000">
<ele>200.8632</ele>
<magvar>359.9</magvar>
<name>RPMA</name>
<cmt>Allah Valley,RP</cmt>
</wpt>
<wpt lat="8.130490" lon="124.215000">
<ele>396.24</ele>
<magvar>0.1</magvar>
<name>RPMI</name>
<cmt>Iligan,RP</cmt>
</wpt>
<wpt lat="6.083333" lon="171.733333">
<ele>1.2192</ele>
<magvar>351.5</magvar>
<name>1Q9</name>
<cmt>MILI,MILI ISLAND,RM</cmt>
</wpt>
<wpt lat="11.340833" lon="162.327833">
<ele>3.9624</ele>
<magvar>353.9</magvar>
<name>PKMA</name>
<cmt>ENEWETAK AUX AF,ENEWETAK,RM</cmt>
</wpt>
<wpt lat="7.461891" lon="151.843017">
<ele>3.048</ele>
<magvar>355.6</magvar>
<name>PTKK</name>
<cmt>CHUUK INTL,WENO ISLAND,FM</cmt>
</wpt>
<wpt lat="44.982778" lon="6.493611">
<ele>1499.9208</ele>
<magvar>359.9</magvar>
<name>LF0531</name>
<cmt>LE CASSET,FR</cmt>
</wpt>
<wpt lat="44.413889" lon="6.373056">
<ele>1891.8936</ele>
<magvar>359.9</magvar>
<name>LF0522</name>
<cmt>COL ST JEAN SEYNES,FR</cmt>
</wpt>
<wpt lat="43.992500" lon="6.386667">
<magvar>359.9</magvar>
<name>LF0423</name>
<cmt>BARRÊME,FR</cmt>
</wpt>
<wpt lat="43.683611" lon="6.071389">
<magvar>0.0</magvar>
<name>LF8321</name>
<cmt>QUINSON,FR</cmt>
</wpt>
<wpt lat="46.031889" lon="12.596472">
<ele>124.968</ele>
<magvar>358.2</magvar>
<name>LIYW</name>
<cmt>PAGLIANO E GORI,IT</cmt>
</wpt>
<wpt lat="48.349444" lon="7.333056">
<ele>381.9144</ele>
<magvar>359.9</magvar>
<name>LF6721</name>
<cmt>ALBE,FR</cmt>
</wpt>
<wpt lat="47.933333" lon="5.866667">
<ele>249.936</ele>
<magvar>0.2</magvar>
<name>LF5221</name>
<cmt>MOULIN DE LACHAT ENFONVELLE,FR</cmt>
</wpt>
<wpt lat="49.038889" lon="6.483333">
<magvar>0.1</magvar>
<name>LF5724</name>
<cmt>VITTONCOURT,FR</cmt>
</wpt>
<wpt lat="49.041944" lon="7.242500">
<magvar>0.0</magvar>
<name>LF5727</name>
<cmt>BINING,FR</cmt>
</wpt>
<wpt lat="48.763333" lon="5.695833">
<ele>275.5392</ele>
<magvar>0.3</magvar>
<name>LF5521</name>
<cmt>CORNIÉVILLE GÉVILLE,FR</cmt>
</wpt>
<wpt lat="48.770833" lon="5.688333">
<ele>339.852</ele>
<magvar>0.3</magvar>
<name>LF5526</name>
<cmt>GÉVILLLE JOUY SOUS LES CÔTES,FR</cmt>
</wpt>
<wpt lat="48.856944" lon="6.435278">
<magvar>0.1</magvar>
<name>LF5722</name>
<cmt>FRESNES,FR</cmt>
</wpt>
<wpt lat="49.486667" lon="5.920833">
<ele>397.764</ele>
<magvar>0.3</magvar>
<name>LF5422</name>
<cmt>VILLERUPT MICHEVILLE,FR</cmt>
</wpt>
<wpt lat="42.866667" lon="1.138333">
<ele>1601.724</ele>
<magvar>1.2</magvar>
<name>LF0924</name>
<cmt>LA PLAGNE BOUIREX,FR</cmt>
</wpt>
<wpt lat="42.836111" lon="0.272222">
<ele>2001.9264</ele>
<magvar>1.5</magvar>
<name>LF6525</name>
<cmt>LA SERRE D'AULON,FR</cmt>
</wpt>
<wpt lat="42.575000" lon="2.038889">
<ele>2327.148</ele>
<magvar>1.0</magvar>
<name>LF6623</name>
<cmt>MONT LLARET PIC D'AUDE LES ANGLES,FR</cmt>
</wpt>
<wpt lat="42.580556" lon="2.025000">
<ele>2352.4464</ele>
<magvar>1.0</magvar>
<name>LF6626</name>
<cmt>MONT LLARET ROC D'AUDE LES ANGLES,FR</cmt>
</wpt>
<wpt lat="43.148333" lon="1.441389">
<magvar>1.2</magvar>
<name>LF0922</name>
<cmt>ARTIGAT,FR</cmt>
</wpt>
<wpt lat="43.201667" lon="1.047222">
<ele>245.0592</ele>
<magvar>1.3</magvar>
<name>LF3124</name>
<cmt>PALAMINY,FR</cmt>
</wpt>
<wpt lat="42.530556" lon="2.004167">
<ele>2132.076</ele>
<magvar>1.0</magvar>
<name>LF6627</name>
<cmt>PLATEAU DE LA CALME FONT ROMEU,FR</cmt>
</wpt>
<wpt lat="44.768889" lon="2.787500">
<ele>856.7928</ele>
<magvar>0.9</magvar>
<name>LF1225</name>
<cmt>GRAISSAC,FR</cmt>
</wpt>
<wpt lat="44.918889" lon="0.645833">
<magvar>1.6</magvar>
<name>LF2431</name>
<cmt>LIORAC,FR</cmt>
</wpt>
<wpt lat="44.337500" lon="0.647778">
<ele>239.8776</ele>
<magvar>1.5</magvar>
<name>LF4725</name>
<cmt>SEMBAS,FR</cmt>
</wpt>
<wpt lat="43.897500" lon="0.143056">
<ele>140.208</ele>
<magvar>1.7</magvar>
<name>LF3221</name>
<cmt>BRETAGNE D'ARMAGNAC,FR</cmt>
</wpt>
<wpt lat="44.100000" lon="0.266667">
<ele>72.8472</ele>
<magvar>1.6</magvar>
<name>LF8229</name>
<cmt>DUNES,FR</cmt>
</wpt>
<wpt lat="44.411389" lon="0.459444">
<magvar>1.6</magvar>
<name>LF4721</name>
<cmt>CASTELMORON,FR</cmt>
</wpt>